latitude,longitude,address
33.2059626,126.2888679,제주특별자치도 서귀포시 대정읍 상모리 165
33.2092329,126.2912734,제주특별자치도 서귀포시 대정읍 형제해안로 284
33.2230513,126.2519613,제주특별자치도 서귀포시 대정읍 하모리 964-2
33.2233667,126.2539516,제주특별자치도 서귀포시 대정읍 하모리 860-7
33.2264568,126.2479068,제주특별자치도 서귀포시 대정읍 하모리 1261-2
33.2272599,126.2995047,제주특별자치도 서귀포시 안덕면 사계남로 89
33.2275785,126.2533912,제주특별자치도 서귀포시 대정읍 하모리 1394-2
33.2282274,126.3051579,제주특별자치도 서귀포시 안덕면 사계리 2147-41
33.2303323,126.3080714,제주특별자치도 서귀포시 안덕면 사계남로 189
33.231089,126.2981042,제주특별자치도 서귀포시 안덕면 사계중앙로 3
33.2338985,126.2937869,제주특별자치도 서귀포시 안덕면 사계북로 52
33.2348055,126.3101797,제주특별자치도 서귀포시 안덕면 사계남로216번길 42
33.2349227,126.309901,제주특별자치도 서귀포시 안덕면 사계남로216번길 52
33.2350614,126.3081631,제주특별자치도 서귀포시 안덕면 사계로114번길 54-102
33.2359297,126.3118958,제주특별자치도 서귀포시 안덕면 사계리 163-1
33.2364679,126.2982101,제주특별자치도 서귀포시 안덕면 사계북로 99
33.2367687,126.2978974,제주특별자치도 서귀포시 안덕면 사계로 62
33.2372137,126.307953,제주특별자치도 서귀포시 안덕면 사계북로 192
33.237623,126.3070204,제주특별자치도 서귀포시 안덕면 사계북로 190
33.239509,126.3033012,제주특별자치도 서귀포시 안덕면 사계북로 157-17
33.2395506,126.5644257,제주특별자치도 서귀포시 칠십리로 72번길 1
33.2395506,126.5644257,제주특별자치도 서귀포시 칠십리로72번길 1
33.2397683,126.5645589,제주특별자치도 서귀포시 칠십리로72번길 9
33.239941,126.5318408,제주특별자치도 서귀포시 호근동 1619
33.240466,126.5192341,제주특별자치도 서귀포시 막숙포로41번길 66
33.241737,126.3246473,제주특별자치도 서귀포시 안덕면 산방로 75-5
33.2420677,126.3694028,제주특별자치도 서귀포시 안덕면 소기왓로 82
33.2424656,126.3048906,제주특별자치도 서귀포시 안덕면 사계로114번길 54-12
33.2426244,126.5916246,제주특별자치도 서귀포시 보목동 1413-1
33.2426497,126.5352179,제주특별자치도 서귀포시 태평로120번길 20
33.2436479,126.5628484,제주특별자치도 서귀포시 서귀동 600-3
33.2436803,126.4505459,제주특별자치도 서귀포시 하원동 1698-1
33.2446988,126.5731435,제주특별자치도 서귀포시 동홍동278
33.244848,126.5511787,제주특별자치도 서귀포시 남성중로 153번길 15
33.2454553,126.2073403,제주특별자치도 서귀포시 대정읍 영락리 1551-2
33.2459288,126.4485815,제주특별자치도 서귀포시 대포동 1156
33.2461233,126.4145102,제주특별자치도 서귀포시 색달동 2889-1
33.2462717,126.3352105,제주특별자치도 서귀포시 안덕면 화순리 1072
33.2466967,126.3333095,제주특별자치도 서귀포시 화순로122
33.2475704,126.4484894,제주특별자치도 서귀포시 이어도로 343번길 101
33.2478045,126.5652754,제주특별자치도 서귀포시 서귀동 403-3
33.2486874,126.410514,제주특별자치도 서귀포시 중문관광로72번길35
33.249074,126.3301164,제주특별자치도 서귀포시 안덕면 화순중앙로12번길 39
33.2491966,126.5545015,제주특별자치도 서귀포시 서홍로4-26
33.2492446,126.5587943,제주특별자치도 서귀포시 서문로 29번길 10
33.2494098,126.3370025,제주특별자치도 서귀포시 화순로 56번길 20
33.2498534,126.5621739,제주특별자치도 서귀포시 서귀동 291-2
33.2499092,126.562059,제주특별자치도 서귀포시 서귀동 291-63
33.2499771,126.2789521,제주특별자치도 서귀포시 대정읍 추사로 36번길 1
33.2500183,126.3341286,제주특별자치도 서귀포시 안덕면 화순중앙로12번길 3
33.2501896,126.2818084,제주특별자치도 서귀포시 대정읍 추사로 10-1 
33.2503378,126.5612456,제주특별자치도 서귀포시 중앙로62번길 지상2층
33.2505889,126.3314694,제주특별자치도 서귀포시 안덕면 화순중앙로12번길 30-9
33.2508394,126.4754532,제주특별자치도 서귀포시 도순남로 29번길 13
33.2510846,126.3036663,제주특별자치도 서귀포시 안덕면 덕수서로 7
33.2512668,126.5703398,제주특별자치도 서귀포시 동홍중앙로 7번길 19
33.2521792,126.4465731,제주특별자치도 서귀포시 대포복개로110번길 133
33.2527656,126.5623086,제주특별자치도 서귀포시 서귀동 284-1
33.2533217,126.555393,제주특별자치도 서귀포시 중앙로 101번길 52
33.2541367,126.4332605,제주특별자치도 서귀포시 1100로49번길 11 
33.2543429,126.564686,제주특별자치도 서귀포시 일주동로 8648-6
33.254644,126.3065707,제주특별자치도 서귀포시 안덕면 덕수회관로 98
33.2549705,126.5074978,제주특별자치도 서귀포시 신서귀로 51번길 38
33.2550452,126.3467911,제주특별자치도 서귀포시 안덕면 감산리 1404
33.2551698,126.5076935,제주특별자치도 서귀포시 강정동 154-1
33.2553696,126.4629175,제주특별자치도 서귀포시 지세못로 29 서진아파트
33.2558564,126.5601238,제주특별자치도 서귀포시 서홍동 397-24 
33.2567285,126.306155,제주특별자치도 서귀포시 안덕면 덕수회관로 74번길 33
33.2571716,126.5884689,제주특별자치도 서귀포시 일주동로8421
33.2583645,126.6103691,제주특별자치도 서귀포시 효돈순환로311-29
33.2583993,126.5914148,제주특별자치도 서귀포시 마소물로135번길 64
33.258413,126.2107749,제주특별자치도 서귀포시 대정읍 영락중동로 11
33.2587024,126.3041897,제주특별자치도 서귀포시 안덕면 덕수서로 91
33.2612447,126.5426118,제주특별자치도 서귀포시 중산간동로8183번길 16 
33.2621091,126.2343891,"제주특별자치도 서귀포시 대정읍 암반수마농로 419, 후문 우측"
33.2624033,126.5364677,제주특별자치도 서귀포시 호근동 806
33.2628169,126.6152514,제주특별자치도 서귀포시 신효동 881-8
33.262871,126.5957295,제주특별자치도 서귀포시 상효로39 
33.263098,126.4424543,제주특별자치도 서귀포시 회수동 788-2
33.2634976,126.6149237,제주특별자치도 서귀포시 효돈로 152번길 7
33.2634976,126.6149237,제주특별자치도 서귀포시 효돈로152번길 7
33.2652432,126.3780352,제주특별자치도 서귀포시 존제로 10
33.2653419,126.2589439,제주특별자치도 서귀포시 대정읍 중산간서로 2610 
33.26567,126.4092912,제주특별자치도 서귀포시 색달중앙로121번길 45
33.2659343,126.4846963,제주특별자치도 서귀포시 용흥로66번길 158-7
33.2668773,126.5724856,제주특별자치도 서귀포시 중산간동로7894번길 18-5
33.2669744,126.2953758,제주특별자치도 서귀포시 대정읍 평화로 225
33.267458,126.3769409,제주특별자치도 서귀포시 존제로 24 
33.2679407,126.5207794,제주특별자치도 서귀포시 서호호근로238번길 10
33.2691705,126.6253505,제주특별자치도 서귀포시 남원읍 하례중앙로 95
33.2701323,126.2029762,제주특별자치도 서귀포시 대정읍 서삼중로 81
33.2705011,126.5659668,제주특별자치도 서귀포시 동홍로239번길 43-12
33.2707785,126.5892962,제주특별자치도 서귀포시 토평동 1442-1
33.2710308,126.2008663,제주특별자치도 서귀포시 대정읍 무릉중앙로 8
33.2715375,126.699638,제주특별자치도 서귀포시 남원읍 태위로510번길 31-16 
33.2727131,126.6544135,제주특별자치도 서귀포시 남원읍 태위로 54-9
33.273153,126.5968534,제주특별자치도 서귀포시 상효동 941-7
33.2731972,126.6231004,제주특별자치도 서귀포시 남원읍 하례로 292
33.2734589,126.198965,제주특별자치도 서귀포시 대정읍 서삼중로 128
33.2737892,126.6572171,제주특별자치도 서귀포시 남원읍 위미해안로 4-3
33.274063,126.5640098,제주특별자치도 서귀포시 동홍로303번길 30 
33.2742951,126.2800556,제주특별자치도 서귀포시 대정읍 구억리 993-1
33.2747415,126.6607855,제주특별자치도 서귀포시 태위로126
33.2748435,126.2352671,제주특별자치도 서귀포시 대정읍 중산간서로 2868 
33.2751495,126.6989518,제주특별자치도 서귀포시 남원읍 태위로 483
33.2751532,126.568336,제주특별자치도 서귀포시 동홍로302번길 6
33.275208,126.6570064,제주특별자치도 서귀포시 남원읍 위미항구로 8
33.2753062,126.6576751,제주특별자치도 서귀포시 남원읍 태위로 95-1
33.2753897,126.668602,제주특별자치도 서귀포시 남원읍 태위로 197
33.275488,126.6408176,제주특별자치도 서귀포시 남원읍 신례로 96
33.2755403,126.6879109,제주특별자치도 서귀포시 남원읍 태위로 381-5
33.2756828,126.7033792,제주특별자치도 서귀포시 남원읍 태위로 527
33.2757251,126.6863091,제주특별자치도 서귀포시 남원읍 남원체육관로 1-7
33.2757666,126.6994554,제주특별자치도 서귀포시 남원읍 태위로 485
33.2758032,126.7052386,제주특별자치도 서귀포시 남원읍 태위로 545
33.2764169,126.7103547,제주특별자치도 서귀포시 남원읍 태위로 594-2
33.2774939,126.1742677,제주특별자치도 서귀포시 대정읍 도원로 37
33.2776083,126.1747448,제주특별자치도 서귀포시 대정읍 도원로 43
33.277617,126.395062,제주특별자치도 서귀포시 상예로381
33.277686,126.3619012,제주특별자치도 서귀포시 안덕면 한창로110번길 61
33.2778061,126.7161593,제주특별자치도 서귀포시 남원읍 남원회관로 27
33.2778135,126.7215514,제주특별자치도 서귀포시 남원읍 남태해안로 155
33.2781034,126.7040994,제주특별자치도 서귀포시 남원읍 태위로 551-27
33.2781337,126.7052541,제주특별자치도 서귀포시 남원읍 태위로 551-28
33.2784207,126.3036429,제주특별자치도 서귀포시 안덕면 서광남로 50
33.2784541,126.2731705,제주특별자치도 서귀포시 대정읍 에듀시티로240번길 9
33.2785554,126.7102687,제주특별자치도 서귀포시 남원읍 태위로603번길 22-1
33.2786802,126.1918728,제주특별자치도 서귀포시 대정읍 도원로 217 
33.2786802,126.1918728,제주특별자치도 서귀포시 대정읍 도원로 217
33.2788009,126.7213531,제주특별자치도 서귀포시 남원읍 남원리 84-2
33.2789777,126.1794187,제주특별자치도 서귀포시 대정읍 도원로 89
33.2789783,126.2732827,제주특별자치도 서귀포시 대정읍 에듀시티로 238
33.2790393,126.2743286,제주특별자치도 서귀포시 대정읍 에듀시티로239번길 8
33.2790999,126.2757618,제주특별자치도 서귀포시 대정읍 글로벌에듀로 404
33.279144,126.7211247,제주특별자치도 서귀포시 남원읍 태위로700번길 4-1
33.2792324,126.7205215,제주특별자치도 서귀포시 남원읍 태위로 690-3
33.279322,126.2721792,제주특별자치도 서귀포시 대정읍 에듀시티로228번길 3
33.2793358,126.5814955,제주특별자치도 서귀포시 516로277번길 45 
33.2795878,126.7219682,제주특별자치도 서귀포시 남원읍 태위로 708-1
33.2798026,126.715271,제주특별자치도 서귀포시 남원읍 남원체육관로 280
33.2800165,126.7183232,제주특별자치도 서귀포시 남원읍 남원리 180
33.2805052,126.663567,제주특별자치도 서귀포시 남원읍 위미상원북로 34
33.2807297,126.2782438,제주특별자치도 서귀포시 대정읍 글로벌에듀로 370
33.2814852,126.7084388,제주특별자치도 서귀포시 남원읍 남원체육관로221번길 23
33.2820609,126.6210125,제주특별자치도 서귀포시 남원읍 하례리 984-4
33.2826763,126.2697981,제주특별자치도 서귀포시 대정읍 에듀시티로204번길 19
33.2827845,126.629108,제주특별자치도 서귀포시 남원읍 중산간동로7141번길 6
33.2829587,126.7467882,제주특별자치도 서귀포시 남원읍 남태해안로 445
33.2830398,126.7471115,제주특별자치도 서귀포시 남원읍 태위로940번길 12-50
33.283396,126.7332056,제주특별자치도 서귀포시 남원읍 태위로 817
33.2839261,126.5656042,제주특별자치도 서귀포시 솔오름로 126
33.2843656,126.5560514,제주특별자치도 서귀포시 솔오름로 28
33.2843923,126.721705,제주특별자치도 서귀포시 남원읍 남조로52
33.2846767,126.5814672,제주특별자치도 서귀포시 인정오름로85번길 41
33.2847141,126.3015865,제주특별자치도 서귀포시 안덕면 서광남로 144-4
33.2847857,126.555756,제주특별자치도 서귀포시 솔오름로20번길 12
33.2852116,126.2758567,제주특별자치도 서귀포시 대정읍 보성리 2424
33.2859808,126.5637555,제주특별자치도 서귀포시 솔오름로105번길 24
33.2860195,126.2832858,제주특별자치도 서귀포시 대정읍 구억리 625-1
33.2869153,126.5845845,제주특별자치도 서귀포시 인정오름로 24
33.2874833,126.5774466,제주특별자치도 서귀포시 인정오름로 90
33.2877167,126.7451635,제주특별자치도 서귀포시 남원읍 태신로 14
33.2879423,126.2818297,제주특별자치도 서귀포시 대정읍 에듀시티로 86
33.2879471,126.2819717,제주특별자치도 서귀포시 대정읍 보성리 2410
33.2881714,126.6270093,제주특별자치도 서귀포시 남원읍 신례중앙로 37
33.2882095,126.6275236,제주특별자치도 서귀포시 남원읍 신례리 1044-1
33.2892724,126.4150925,제주특별자치도 서귀포시 색달중앙로252번길 124
33.2896155,126.6291723,제주특별자치도 서귀포시 남원읍 신례중앙로 6
33.2900093,126.7543182,제주특별자치도 서귀포시 남원읍 일주동로 6789-47
33.290498,126.7244359,제주특별자치도 서귀포시 남원읍 태수로143번길 132-37
33.2906937,126.2985275,제주특별자치도 서귀포시 안덕면 녹차분재로 85
33.2907134,126.7446801,제주특별자치도 서귀포시 남원읍 태신로 50 
33.2908538,126.2481025,제주특별자치도 제주시 한경면 연명로 159-7
33.2909741,126.6342322,제주특별자치도 서귀포시 남원읍 신례동로 60
33.2919464,126.661655,제주특별자치도 서귀포시 남원읍 자배오름로139번길 149
33.292681,126.2336974,제주특별자치도 제주시 한경면 연명로 8-1
33.2937647,126.7586888,제주특별자치도 서귀포시 남원읍 태흥리 119-3
33.2944737,126.7111159,제주특별자치도 서귀포시 남원리 381
33.2955798,126.2178898,제주특별자치도 제주시 한경면 불그못로 72
33.2965697,126.2426095,제주특별자치도 제주시 한경면 대한로 791
33.2969318,126.5898662,제주특별자치도 서귀포시 상효동 1421-9
33.2970013,126.6304463,제주특별자치도 서귀포시 남원읍 신례동로 121-17
33.2972045,126.6088587,제주특별자치도 서귀포시 남원읍 하례돈야로 83
33.2974057,126.3051643,제주특별자치도 서귀포시 안덕면 서광리 1279
33.2986031,126.304459,제주특별자치도 서귀포시 안덕면 서광리 산35-7
33.3004758,126.183708,제주특별자치도 제주시 한경면 칠전로 37
33.3006947,126.1792815,제주특별자치도 제주시 한경면 용고로 81
33.3015229,126.1845301,제주특별자치도 제주시 한경면 칠전로 41
33.3022732,126.2590294,제주특별자치도 제주시 한경면 연명로 348 
33.3024639,126.2945827,제주특별자치도 서귀포시 안덕면 녹차분재로 216
33.3024866,126.6119571,제주특별자치도 서귀포시 남원읍 하례광장로 107
33.3042197,126.766788,제주특별자치도 서귀포시 남원읍 신흥로 34
33.3042485,126.2896837,제주특별자치도 서귀포시 안덕면 서광리 2489-49
33.3042936,126.3385546,제주특별자치도 서귀포시 안덕면 동광로100번길 20
33.3043418,126.2996189,제주특별자치도 서귀포시 안덕면 녹차분재로 218
33.304633,126.1812927,제주특별자치도 제주시 한경면 고산로4길 12-7
33.3049727,126.3163521,제주특별자치도 서귀포시 안덕면 신화역사로304번길 38
33.305119,126.3877847,제주특별자치도 서귀포시 안덕면 산록남로762번길 113
33.305825,126.2580621,제주특별자치도 제주시 한경면 연명로 385
33.3060176,126.1791471,제주특별자치도 제주시 한경면 고산로6길 2
33.3060635,126.8064235,제주특별자치도 서귀포시 표선면 민속해안로 11
33.3070713,126.1684727,제주특별자치도 제주시 한경면 노을해안로 1203-1
33.3076432,126.4191596,제주특별자치도 서귀포시 산록남로 1241번길 145
33.307742,126.829463,제주특별자치도 서귀포시 표선면 민속해안로 292
33.3078526,126.8095428,제주특별자치도 서귀포시 표선면 민속해안로97번길 35
33.3079419,126.8124366,제주특별자치도 서귀포시 표선면 민속해안로119번길 17
33.3081774,126.1640956,제주특별자치도 제주시 한경면 노을해안로 1145
33.3101756,126.3335478,제주특별자치도 서귀포시 안덕면 신화역사로403번길 82
33.3106718,126.3496793,제주특별자치도 서귀포시 안덕면 신화역사로 581
33.3109467,126.3415912,제주특별자치도 서귀포시 안덕면 동광리827
33.3113658,126.2445664,제주특별자치도 제주시 한경면 청수서2길 96
33.3116002,126.3470908,제주특별자치도 서귀포시 안덕면 신화역사로 545-14 
33.3119188,126.6952763,제주특별자치도 서귀포시 남원읍 한남리 359-2
33.3127768,126.7439798,제주특별자치도 서귀포시 남원읍 태신로 130번길 170
33.3143895,126.3445735,제주특별자치도 서귀포시 안덕면 동광리 886
33.3150133,126.8271318,제주특별자치도 서귀포시 표선면 표선동서로 115
33.3154252,126.7433113,제주특별자치도 서귀포시 남원읍 태수로144번길 239-10
33.316097,126.6343686,제주특별자치도 서귀포시 남원읍 신례동로 338
33.3161612,126.8373534,제주특별자치도 서귀포시 표선면 표선백사로60번길 72
33.3168279,126.8288552,제주특별자치도 서귀포시 표선면 표선동서로 138
33.3180122,126.2701329,제주특별자치도 제주시 한경면 명이5길 4
33.3180833,126.2475125,제주특별자치도 제주시 한경면 대한로 1036
33.3185785,126.8336507,제주특별자치도 서귀포시 표선면 표선백사로58번길 36
33.3190016,126.3456465,제주특별자치도 서귀포시 안덕면 동광리 383
33.3191424,126.2704461,제주특별자치도 제주시 한경면 명이5길 17
33.3203989,126.7453134,제주특별자치도 서귀포시 남원읍 한신로531번길 22-3
33.3209849,126.8280898,제주특별자치도 서귀포시 표선면 표선동서로61번길 124
33.3227335,126.6390432,제주특별자치도 서귀포시 남원읍 서성로 427  백통신원 기린산장
33.3228625,126.1677282,제주특별자치도 제주시 한경면 용수1길 108
33.3237781,126.8384928,제주특별자치도 서귀포시 표선면 표선백사로110번길 17-10
33.3246937,126.164956,제주특별자치도 제주시 한경면 용수3길 45
33.3247262,126.843459,제주특별자치도 서귀포시 표선면 민속해안로 631-45
33.3247788,126.8318677,제주특별자치도 서귀포시 표선동서로233
33.3259107,126.4647634,제주특별자치도 서귀포시 대포동 산1-1
33.3262358,126.8317924,제주특별자치도 서귀포시 표선면 표선중앙로 74-1
33.3268733,126.8234679,제주특별자치도 서귀포시 표선면 표선리 2103
33.3281448,126.3795858,제주특별자치도 서귀포시 안덕면 광평리 211
33.3290994,126.8340034,제주특별자치도 서귀포시 표선면 표선중앙로43번길 25-6
33.330933,126.830525,제주특별자치도 서귀포시 표선면 표선중앙로 21
33.3342457,126.7710622,제주특별자치도 서귀포시 표선면 토산세화로35번길 16-17
33.3371769,126.2635872,제주특별자치도 제주시 한경면 저지12길 72-12
33.3374396,126.2288111,제주특별자치도 제주시 한경면 조수7길 55
33.3377476,126.3124114,제주특별자치도 제주시 한림읍 한창로 925-122
33.3382705,126.2657591,제주특별자치도 제주시 한경면 저지리 2114-68
33.3384775,126.2659442,제주특별자치도 제주시 한경면 저지리 2114-82
33.3387926,126.3956947,제주특별자치도 서귀포시 안덕면 광평로 34-154
33.3390792,126.2686755,제주특별자치도 제주시 한림읍 용금로 883-5
33.3398835,126.2920411,제주특별자치도 제주시 한림읍 금악서길133
33.3401088,126.4805166,제주특별자치도 서귀포시 영실로 246
33.3403726,126.4042502,제주특별자치도 서귀포시 안덕면 광평로 34-156
33.3413754,126.3217592,제주특별자치도 제주시 한림읍 한창로 992 
33.3417409,126.8148886,제주특별자치도 서귀포시 표선면 번영로3428번길 129
33.3426569,126.8260316,제주특별자치도 서귀포시 표선면 번영로3428번길 7
33.3457058,126.2489602,제주특별자치도 제주시 한림읍 수동7길 54-3
33.3459489,126.3219664,제주특별자치도 제주시 한림읍 산록남로 53 
33.3459489,126.3219664,제주특별자치도 제주시 한림읍 산록남로 53
33.3460917,126.1793506,제주특별자치도 제주시 한경면 한경해안로565
33.3468342,126.3885535,제주특별자치도 제주시 애월읍 화전안길 20-5
33.3475329,126.3688928,제주특별자치도 제주시 한림읍 화전길 82
33.347573,126.2807271,제주특별자치도 제주시 한림읍 조성로 128-15
33.3477809,126.8536197,제주특별자치도 서귀포시 성산읍 신천동로13번길 27
33.3480832,126.3574887,제주특별자치도 제주시 한림읍 광산로 942
33.3498642,126.1844735,제주특별자치도 제주시 한경면 신창리 233-1
33.3498928,126.3045107,제주특별자치도 제주시 한림읍 금악리 1242-8
33.3508164,126.2553796,제주특별자치도 제주시 한림읍 월림7길 2
33.35117,126.7717166,제주특별자치도 서귀포시 표선면 중산간동로 5236-7
33.3515108,126.767315,제주특별자치도 서귀포시 표선면 중산간동로5220번길 37
33.3529028,126.1856471,제주특별자치도 제주시 한경면 두모리 2962-1
33.3533014,126.2985011,제주특별자치도 제주시 한림읍 한창로 1249
33.3534662,126.2476976,제주특별자치도 제주시 한림읍 월림7길 90
33.3537114,126.2762566,제주특별자치도 제주시 한림읍 조성로 47
33.3549227,126.2430804,제주특별자치도 제주시 한림읍 월림7길 155
33.3563393,126.2964773,제주특별자치도 제주시 한림읍 한창로 1295-1
33.3568263,126.823054,제주특별자치도 서귀포시 표선면 하천리 1493-4
33.3574854,126.1830585,제주특별자치도 제주시 한경면 두모11길 52-1
33.3584744,126.2412156,제주특별자치도 제주시 한림읍 금능농공길 62-11
33.3588589,126.8643975,제주특별자치도 서귀포시 성산읍 일주동로5379
33.359774,126.2423771,제주특별자치도 제주시 한림읍 금능농공길 48-11
33.3598858,126.2948438,제주특별자치도 제주시 한림읍 금악로1길 15
33.35994,126.2711371,제주특별자치도 제주시 한림읍 상명1길 16-1
33.3608607,126.2013163,제주특별자치도 제주시 한경면 판포2길 44
33.361196,126.8354544,제주특별자치도 서귀포시 성산읍 풍천로 227 
33.3612058,126.8388507,제주특별자치도 서귀포시 성산읍 풍천로192번길 40-1
33.361283,126.3639863,제주특별자치도 제주시 애월읍 평화로 1513
33.361771,126.834439,제주특별자치도 서귀포시 성산읍 신풍상동로14번길 6 
33.362715,126.8399751,제주특별자치도 서귀포시 성산읍 신풍하동로 37
33.3627386,126.1932921,제주특별자치도 제주시 한경면 일주서로4469
33.364957,126.199338,제주특별자치도 제주시 한경면 판포1길 6
33.3656827,126.203228,제주특별자치도 제주시 한경면 판포4길 41-41
33.3658388,126.2586585,제주특별자치도 제주시 한림읍 상명리 산 6번지
33.3689843,126.8633089,제주특별자치도 서귀포시 성산읍 삼달로 47
33.369992,126.3206124,제주특별자치도 제주시 한림읍 광산로 491-1
33.3700299,126.206149,제주특별자치도 제주시 한경면 판포리 1608
33.3721685,126.8392099,제주특별자치도 서귀포시 성산읍 삼달신풍로 95-24
33.372279,126.2078406,제주특별자치도 제주시 한경면 판포리 1459-1
33.3723798,126.8542528,제주특별자치도 서귀포시 성산읍 삼달로 137
33.3727764,126.8272083,제주특별자치도 서귀포시 성산읍 남산봉로 120
33.3730412,126.3817708,제주특별자치도 제주시 애월읍 평화로 1738-116
33.3742638,126.84679,제주특별자치도 서귀포시 성산읍 삼달로 215
33.375532,126.328625,제주특별자치도 제주시 애월읍 월각로 563-20
33.37598,126.2156728,제주특별자치도 제주시 한림읍 월령1길 11
33.3769025,126.2360608,제주특별자치도 제주시 한림읍 금능리 2243-2
33.379434,126.2163718,제주특별자치도 제주시 한림읍 월령3길 39-5
33.3812579,126.8772928,제주특별자치도 서귀포시 성산읍 일주동로 5101-1
33.3818906,126.2625436,제주특별자치도 제주시 한림읍 협재남6길 140
33.3844608,126.8013996,제주특별자치도 서귀포시 표선면 성읍리 855-3
33.3885783,126.2312842,제주특별자치도 제주시 한림읍 금능6길 19
33.389238,126.2313929,제주특별자치도 제주시 한림읍 금능길 79
33.389362,126.249381,제주특별자치도 제주시 한림읍 일주서로 5083-5 
33.3895573,126.2679393,제주특별자치도 제주시 한림읍 하운당길 16-1
33.3898147,126.8308458,제주특별자치도 서귀포시 성산읍 중산간동로 4328-63
33.3899905,126.2689668,제주특별자치도 제주시 한림읍 하운당길 32
33.3904592,126.8019702,제주특별자치도 서귀포시 표선면 성읍정의현로 88-10
33.3908635,126.2375622,제주특별자치도 제주시 한림읍 금능리 2018
33.3921956,126.2412391,제주특별자치도 제주시 한림읍 협재2길 10
33.3925018,126.242479,제주특별자치도 제주시 한림읍 협재2길 26
33.3926876,126.4948419,제주특별자치도 제주시 1100로 2070-61
33.394133,126.3734284,제주특별자치도 제주시 애월읍 평화로 1885
33.3941574,126.7981916,제주특별자치도 서귀포시 표선면 성읍리 1632-6
33.3969554,126.2498365,제주특별자치도 제주시 한림읍 옹포2길 44
33.3973526,126.2460638,제주특별자치도 제주시 한림읍 협재리 1560-3
33.3984189,126.2445067,제주특별자치도 제주시 한림읍 협재3길 9 
33.3985453,126.7871191,제주특별자치도 서귀포시 표선면 번영로2650
33.399049,126.3251931,제주특별자치도 제주시 애월읍 돈물내길 16
33.3993861,126.2499965,제주특별자치도 제주시 한림읍 옹포2길 16
33.3998489,126.2497182,제주특별자치도 제주시 한림읍 옹포2길 10
33.400218,126.253123,제주특별자치도 제주시 옹포 4길 20 101동
33.400218,126.253123,제주특별자치도 제주시 옹포 4길 20 102동
33.4008328,126.250451,제주특별자치도 제주시 한림읍 옹포2길 1
33.4009899,126.8709033,제주특별자치도 서귀포시 성산읍 난산리 1074
33.4014447,126.6757628,제주특별자치도 서귀포시 표선면 남조로 1487-73
33.4024873,126.9025737,제주특별자치도 서귀포시 성산읍 온평포구로 63
33.402903,126.3472261,제주특별자치도 제주시 애월읍 어음13길 25-45
33.4041252,126.8131414,제주특별자치도 서귀포시 표선면 서성일로189번길 1
33.4041415,126.2588227,제주특별자치도 제주시 한림읍 옹포남3길 19
33.4047469,126.372618,제주특별자치도 제주시 애월읍 도치돌길 385
33.4059502,126.4079691,제주특별자치도 제주시 애월읍 녹고메길 165
33.4060416,126.8196657,제주특별자치도 서귀포시 성산읍 난산리 2967
33.4081232,126.9001909,제주특별자치도 서귀포시 성산읍 온평애향로23번길 6
33.4086536,126.3173306,제주특별자치도 제주시 애월읍 녹근로 130
33.4094261,126.2685896,제주특별자치도 제주시 한림읍 한림리 887-2
33.4099569,126.3657428,제주특별자치도 제주시 애월읍 도치돌길 293
33.4102406,126.2626357,제주특별자치도 제주시 한림읍 문교길 27
33.4105236,126.2583731,제주특별자치도 제주시 한림읍 한림리 1377-48
33.412307,126.269713,제주특별자치도 제주시 한림읍 강구로 5
33.4128709,126.2626365,제주특별자치도 제주시 한림읍 한림리 1441-4
33.4131549,126.4185384,제주특별자치도 제주시 애월읍 유수암평화10길 175-78
33.4131581,126.3941587,제주특별자치도 제주시 애월읍 소길리 155-18
33.413899,126.4937211,제주특별자치도 제주시 노형동 3829
33.4153297,126.7709701,제주특별자치도 서귀포시 표선면 성읍이리로47번길 11
33.4159088,126.2673549,제주특별자치도 제주시 한림읍 한림로14길 13
33.4159088,126.2673549,제주특별자치도 제주시 한림읍 한림로14길 13 
33.4163924,126.332528,제주특별자치도 제주시 애월읍 어림비로 203
33.4166226,126.2739709,제주특별자치도 제주시 한림읍 명랑남동길 25 
33.4173496,126.2730509,제주특별자치도 제주시 한림읍 한수풀로2길 31
33.4173979,126.2639481,제주특별자치도 제주시 한림읍 한림북동길 26
33.4196638,126.2661524,제주특별자치도 제주시 한림읍 대림4길 20
33.4197131,126.2753245,제주특별자치도 제주시 한림읍 대림리 413
33.4197301,126.3387208,제주특별자치도 제주시 애월읍 천덕로 440-6
33.4197635,126.3397197,제주특별자치도 제주시 애월읍 천덕로 440-1
33.4200004,126.3387024,제주특별자치도 제주시 애월읍 천덕로 440-4
33.4219078,126.2636024,제주특별자치도 제주시 한림읍 한수5길 6
33.4236211,126.4079729,제주특별자치도 제주시 애월읍 유수암리 1014
33.4236994,126.4890831,제주특별자치도 제주시 1100로 2671-51
33.4241015,126.7430557,제주특별자치도 제주시 구좌읍 번영로 2172-80
33.4246827,126.4091708,제주특별자치도 제주시 애월읍 평화로 2369
33.4252371,126.4871295,제주특별자치도 제주시 1100로 2671-30
33.4253064,126.6724406,제주특별자치도 제주시 조천읍 교래4길 20 
33.4255812,126.5287484,제주특별자치도 제주시 오라2동 산 100
33.4262719,126.5578682,제주특별자치도 제주시 아라일동 387-1
33.4270663,126.2968173,제주특별자치도 제주시 한림읍 귀덕로 198-6
33.4273528,126.4107977,제주특별자치도 제주시 애월읍 유수암평화10길 2
33.4274726,126.2706327,제주특별자치도 제주시 한림읍 수원9길 2
33.4276776,126.6739791,제주특별자치도 제주시 조천읍 교래리 280
33.4296005,126.3133543,제주특별자치도 제주시 애월읍 곽봉로 213
33.4306706,126.4340474,제주특별자치도 제주시 애월읍 광령평화2길 170-2
33.4317013,126.674625,제주특별자치도 제주시 조천읍 교래3길 98 
33.4328557,126.4288727,제주특별자치도 제주시 애월읍 고성남길 51
33.4331956,126.6745539,제주특별자치도 제주시 조천읍 비자림로 606
33.4332357,126.7507897,제주특별자치도 제주시 구좌읍 번영로 2133-30
33.4342459,126.4326098,제주특별자치도 제주시 애월읍 광령평화2길 116-20 
33.4343266,126.637707,제주특별자치도 제주시 봉개동 2750-2
33.4344811,126.676113,제주특별자치도 제주시 조천읍 비자림로 636
33.4350827,126.4346442,제주특별자치도 제주시 애월읍 광령평화2길 119
33.4351691,126.8178382,제주특별자치도 서귀포시 성산읍 수산리 4711
33.4352859,126.2914704,제주특별자치도 제주시 한림읍 귀덕6길 94
33.4355013,126.6748,제주특별자치도 제주시 조천읍 비자림로 631 
33.4356136,126.6787143,제주특별자치도 제주시 조천읍 교래3길 24
33.4356227,126.425237,제주특별자치도 제주시 애월읍 고성남1길 1
33.4356487,126.2902462,제주특별자치도 제주시 한림읍 귀덕6길 92-17
33.4361566,126.4241707,제주특별자치도 제주시 애월읍 평화로 2558
33.43625,126.6790289,제주특별자치도 제주시 조천읍 비자림로 684
33.436332,126.6765609,제주특별자치도 제주시 조천읍 비자림로 648 
33.4363701,126.2980479,제주특별자치도 제주시 한림읍 귀덕리 735-18
33.4369279,126.6731438,제주특별자치도 제주시 조천읍 교래1길 45
33.4369327,126.6770396,제주특별자치도 제주시 조천읍 비자림로 658 
33.4369855,126.6766827,제주특별자치도 제주시 조천읍 비자림로 657
33.4375344,126.6763824,제주특별자치도 제주시 조천읍 교래1길 3
33.4378267,126.2802757,제주특별자치도 제주시 한림읍 귀덕4길 1
33.4378733,126.9157125,제주특별자치도 서귀포시 성산읍 신고로 11
33.438114,126.4081263,제주특별자치도 제주시 애월읍 유수암동3길 45
33.4387507,126.3301443,제주특별자치도 제주시 애월읍 납읍로2길 2
33.4395837,126.9205317,제주특별자치도 서귀포시 성산읍 섭지코지로25번길 8
33.4397701,126.907082,제주특별자치도 서귀포시 성산읍 난고로34번길 61
33.4399184,126.9181992,제주특별자치도 서귀포시 성산읍 신고로 52-18
33.4402439,126.6672522,제주특별자치도 제주시 조천읍 교래리 산98-2
33.4404883,126.380182,제주특별자치도 제주시 애월읍 소길1길 11 
33.4405931,126.2917677,제주특별자치도 제주시 한림읍 귀덕동길 58
33.4410994,126.5656163,제주특별자치도 제주시 아라1동 산 1-6
33.4413469,126.4798306,제주특별자치도 제주시 신비마을1길 56-3
33.4424791,126.2845537,제주특별자치도 제주시 한림읍 귀덕7길 29
33.4425281,126.2895034,제주특별자치도 제주시 한림읍 귀덕리 3025-2
33.4433577,126.9065901,"제주특별자치도 서귀포시 성산읍 난고로 42번길 110, 103동"
33.4440125,126.8995992,제주특별자치도 서귀포시 성산읍 서성일로1136번길 10-1
33.4440855,126.5675495,제주특별자치도 제주시 첨단로8길 64
33.4441306,126.7781683,제주특별자치도 제주시 구좌읍 금백조로 930
33.4441385,126.4296382,제주특별자치도 제주시 애월읍 하광로 530 
33.4441937,126.4342223,제주특별자치도 제주시 애월읍 광령평화4길 6
33.4444699,126.9191113,제주특별자치도 서귀포시 성산읍 섭지코지로25번길 64
33.444545,126.5492346,제주특별자치도 제주시 선돌목동길 60
33.4447382,126.9112041,제주특별자치도 서귀포시 성산읍 서성일로1222번길 36
33.4447815,126.3064566,제주특별자치도 제주시 애월읍 곽봉로 4-39
33.444907,126.5606706,제주특별자치도 제주시 아라1동 4-17
33.4449738,126.4327017,제주특별자치도 제주시 애월읍 평화로 2681
33.4453383,126.4300616,제주특별자치도 제주시 애월읍 하광로 518
33.4455249,126.91787,제주특별자치도 서귀포시 성산읍 섭지코지로25번길 77
33.445872,126.8830129,제주특별자치도 서귀포시 성산읍 수산리 703-1
33.4460261,126.8827197,제주특별자치도 서귀포시 성산읍 수산서남로 17-1
33.4465347,126.3026885,제주특별자치도 제주시 애월읍 금성하안길 3 
33.4465777,126.9157659,제주특별자치도 서귀포시 성산읍 고성오조로 42
33.4466856,126.913193,제주특별자치도 서귀포시 성산읍 일출로 14-11
33.4468357,126.5602913,제주특별자치도 제주시 산천단동길 26
33.4470161,126.5616449,제주특별자치도 제주시 산천단 동3길 2
33.4470784,126.5585328,제주특별자치도 제주시 산천단동길 24
33.4471192,126.9075433,제주특별자치도 서귀포시 성산읍 고성중앙로 28-5
33.4476226,126.5675405,제주특별자치도 제주시 첨단로8길 36
33.4478649,126.8533564,제주특별자치도 서귀포시 성산읍 수송로162번길 14
33.4482867,126.3015642,제주특별자치도 제주시 애월읍 금성5길 42-15
33.4483838,126.434602,제주특별자치도 제주시 애월읍 평화로 2715
33.4484001,126.9063527,제주특별자치도 서귀포시 성산읍 산성효자로 67
33.4485242,126.9086927,제주특별자치도 서귀포시 성산읍 고성중앙로 52
33.4485529,126.9167152,제주특별자치도 서귀포시 성산읍 고성리 327-1
33.4487112,126.4454327,제주특별자치도 제주시 애월읍 광령평화10길 96
33.448829,126.6380545,제주특별자치도 제주시 명림로 575-107
33.4489793,126.7134486,제주특별자치도 제주시 조천읍 번영로 1734-15 
33.4490592,126.9162805,제주특별자치도 서귀포시 성산읍 동류암로 38
33.4492555,126.4001394,제주특별자치도 제주시 애월읍 장유길 49-39
33.4497752,126.345658,제주특별자치도 제주시 애월읍 상가리 1196-1
33.4500563,126.3084004,제주특별자치도 제주시 애월읍 곽지7길 1 
33.45054,126.3070457,제주특별자치도 제주시 애월읍 곽지9길 29 
33.4506347,126.6653586,제주특별자치도 제주시 조천읍 남조로 2044-38
33.4509822,126.9102547,제주특별자치도 서귀포시 성산읍 고성동서로 33
33.4513574,126.432493,제주특별자치도 제주시 애월읍 광령남3길 49
33.451795,126.919062,제주특별자치도 서귀포시 성산읍 고성동서로 115
33.4520787,126.9145096,제주특별자치도 서귀포시 성산읍 고성오조로 94 
33.4526948,126.4522816,제주특별자치도 제주시 해안마을서4길 107-1
33.453045,126.4488951,제주특별자치도 제주시 해안마을서4길 100
33.4534941,126.5754199,제주특별자치도 제주시 첨단로동길 74
33.4535329,126.5707202,제주특별자치도 제주시 영평동 2179-1
33.4539454,126.5785178,제주특별자치도 제주시 첨단남길 42 
33.4539625,126.9136424,제주특별자치도 서귀포시 성산읍 고성오조로 120 
33.4548181,126.7116361,제주특별자치도 제주시 조천읍 선흘리 461
33.4553291,126.9255526,제주특별자치도 서귀포시 성산읍 고성리 263
33.4553485,126.6688528,제주특별자치도 제주시 조천읍 번영로 1278-169
33.4568773,126.7142801,제주특별자치도 제주시 조천읍 선교로 569-36
33.4570864,126.7797062,제주특별자치도 제주시 구좌읍 송당6길 164
33.457319,126.7037375,제주특별자치도 제주시 조천읍 번영로 1619
33.4577807,126.5739914,제주특별자치도 제주시 첨단로동길 24
33.4579116,126.9002433,제주특별자치도 서귀포시 성산읍 병문로 130
33.4579323,126.4505382,제주특별자치도 제주시 해안마을서4길 43
33.4581346,126.403875,제주특별자치도 제주시 애월읍 상귀길 173
33.4581847,126.7086212,제주특별자치도 제주시 조천읍 선진길 66-2
33.458228,126.4506612,제주특별자치도 제주시 해안마을서4길 39
33.458682,126.538805,제주특별자치도 제주시 죽성길 13
33.4587337,126.4504933,제주특별자치도 제주시 해안마을서4길 35
33.4589178,126.5737584,제주특별자치도 제주시 첨단로동길 10
33.4589873,126.4486604,제주특별자치도 제주시 해안마을서2길 19
33.4593881,126.7032712,제주특별자치도 제주시 조천읍 선진길 7-10 
33.4602889,126.909649,제주특별자치도 서귀포시 성산읍 일주동로 4120번길 7
33.4602889,126.909649,제주특별자치도 서귀포시 성산읍 일주동로4120번길 7
33.4604345,126.3219188,제주특별자치도 제주시 애원로41
33.460822,126.9150964,제주특별자치도 서귀포시 성산읍 오조로 77
33.461018,126.446363,제주특별자치도 제주시 애월읍 무수천길 5-6
33.4610923,126.4391205,제주특별자치도 제주시 애월읍 광성로 299
33.4612171,126.5332439,제주특별자치도 제주시 죽성서길 6 
33.4616164,126.9146367,제주특별자치도 서귀포시 성산읍 오조로85번길 4
33.4618887,126.4449265,제주특별자치도 제주시 애월읍 중산간서로 6703-10
33.4621371,126.3122572,제주특별자치도 제주시 애월읍 애월로 37
33.4621633,126.5268234,제주특별자치도 제주시 고다시길 17
33.4625994,126.443918,제주특별자치도 제주시 애월읍 중산간서로 6703-11
33.4626034,126.9353337,제주특별자치도 서귀포시 성산읍 일출로 284-6
33.4627583,126.9313026,제주특별자치도 서귀포시 성산읍 성산중앙로19번길 14
33.4629483,126.3262163,제주특별자치도 제주시 애월읍 애월로18길 5 
33.463033,126.7092042,제주특별자치도 제주시 조천읍 선교로 474
33.4630625,126.7095693,제주특별자치도 제주시 조천읍 선교로 474-1
33.4631306,126.9337452,제주특별자치도 서귀포시 성산읍 성산중앙로40번길 4
33.4631331,126.3117222,제주특별자치도 제주시 애월읍 애월로1길 8
33.4631331,126.3117222,제주특별자치도 제주시 애월읍 애월로1길 8 
33.4634832,126.3213354,제주특별자치도 제주시 애월읍 애월로14길 6
33.463519,126.4869984,제주특별자치도 제주시 은수남길 91
33.4643295,126.8366151,제주특별자치도 제주시 구좌읍 용눈이오름로 641
33.4644223,126.3382227,제주특별자치도 제주시 애월읍 고내로7길 18
33.4644511,126.4538987,제주특별자치도 제주시 해안마을북길 14-6
33.4646559,126.9355764,제주특별자치도 서귀포시 성산읍 성산중앙로64번길 5-1
33.4648548,126.4534113,제주특별자치도 제주시 해안마을북길 14-5 
33.4649577,126.421925,제주특별자치도 제주시 애월읍 하광로 269
33.4649615,126.4078093,제주특별자치도 제주시 애월읍 항몽로 228
33.4652679,126.9130209,제주특별자치도 서귀포시 성산읍 오조로 131
33.4656683,126.936039,제주특별자치도 서귀포시 성산읍 한도로 269
33.4656798,126.4107337,제주특별자치도 제주시 애월읍 고성서3길 15-5
33.4660547,126.9328453,제주특별자치도 서귀포시 성산읍 한도로242번길 8
33.4661708,126.9359071,제주특별자치도 서귀포시 성산읍 한도로 267
33.4662064,126.4193436,제주특별자치도 제주시 애월읍 하광로 246
33.4662315,126.5667679,제주특별자치도 제주시 사송길 137
33.4663248,126.3949979,제주특별자치도 제주시 애월읍 수산리 444-1
33.4671105,126.5452109,제주특별자치도 제주시 아란13길15
33.4675779,126.9133751,제주특별자치도 서귀포시 성산읍 한도로 49
33.4679007,126.4176397,제주특별자치도 제주시 애월읍 하광로 222-16
33.4680431,126.5657619,제주특별자치도 제주시 사송길 116
33.4688859,126.4168022,제주특별자치도 제주시 애월읍 하광로 208-22
33.4689534,126.9218861,제주특별자치도 서귀포시 성산읍 한도로 129
33.4689635,126.9206897,제주특별자치도 서귀포시 성산읍 한도로 117
33.4691148,126.3487993,제주특별자치도 제주시 애월읍 고내로13길 76-20
33.4693679,126.51745,제주특별자치도 제주시 오등1길 140
33.4694725,126.3455516,제주특별자치도 제주시 애월읍 고내로13길 59
33.4696833,126.3681094,제주특별자치도 제주시 애월읍 신엄8길 21
33.4701788,126.3637223,제주특별자치도 제주시 애월읍 신엄5길 1
33.4702899,126.4437156,제주특별자치도 제주시 애월읍 사라길 144
33.4703444,126.5468918,제주특별자치도 제주시 아라동 6140-4
33.4706799,126.7842698,제주특별자치도 제주시 구좌읍 송당4길 7
33.4709059,126.3476286,제주특별자치도 제주시 애월읍 고내로13길 83
33.4711206,126.3469725,제주특별자치도 제주시 애월읍 고내로13길 79
33.4712945,126.7077518,제주특별자치도 제주시 조천읍 선교로 384
33.4714454,126.3512544,제주특별자치도 제주시 애월읍 애월해안로400-9
33.4714527,126.7702715,제주특별자치도 제주시 구좌읍 중산간동로 2126
33.4714857,126.7789487,제주특별자치도 제주시 송당리 1265-1
33.4716831,126.9171053,제주특별자치도 서귀포시 성산읍 해맞이해안로 2725
33.4718231,126.9126814,제주특별자치도 서귀포시 성산읍 해맞이해안로 2688
33.4718494,126.4528763,제주특별자치도 제주시 고래소길 71
33.4718522,126.5690873,제주특별자치도 제주시 포제길 7
33.4719202,126.3758625,제주특별자치도 제주시 애월읍 구엄리 1054-1
33.471925,126.3479735,제주특별자치도 제주시 애월읍 고내로13길 99-15
33.4720859,126.3489158,제주특별자치도 제주시 애월읍 고내로13길 100
33.4720907,126.7094675,제주특별자치도 제주시 조천읍 선교로 371-10
33.472134,126.4857603,제주특별자치도 제주시 1100로3198-8
33.4723809,126.4087308,제주특별자치도 제주시 애월읍 항몽로 136-1
33.4725743,126.9323709,"제주특별자치도 서귀포시 성산읍 성산리 347-9, 주차타워 앞"
33.4726695,126.3727886,제주특별자치도 제주시 애월읍 중용길 6
33.4728141,126.4890519,제주특별자치도 제주시 연화남길 41 
33.4731476,126.4264735,제주특별자치도 제주시 애조로405
33.473439,126.5648206,제주특별자치도 제주시 사송길 52
33.4735456,126.4481311,제주특별자치도 제주시 장군내길 68-1
33.4736643,126.5447609,제주특별자치도 제주시 아라1동 6093-4
33.4741448,126.9110172,제주특별자치도 서귀포시 성산읍 해맞이해안로2660
33.4742264,126.5653403,제주특별자치도 제주시 사송길 41
33.474532,126.5654135,제주특별자치도 제주시 사송길 37
33.4745844,126.4800641,제주특별자치도 제주시 진군남 4길 7-16
33.4749669,126.5659301,제주특별자치도 제주시 사송길 31
33.4754269,126.4610638,제주특별자치도 제주시 월산북길 52
33.4755274,126.5278748,제주특별자치도 제주시 아연로 447 하버빌
33.4758983,126.4081175,제주특별자치도 제주시 애월읍 항몽로 94
33.4761662,126.4609041,제주특별자치도 제주시 도평동 53-1
33.4762174,126.6383189,제주특별자치도 제주시 조천읍 와흘리 782
33.4763008,126.4616675,제주특별자치도 제주시 월산북길 43-8
33.4775002,126.4525356,제주특별자치도 제주시 곱은이길 14
33.4775157,126.4512309,제주특별자치도 제주시 고래소길 7
33.4780582,126.4040004,제주특별자치도 제주시 애월읍 답동2길 40
33.4782051,126.4837577,제주특별자치도 제주시 노형동 754
33.4782637,126.4498187,제주특별자치도 제주시 도평길 53
33.4784513,126.545221,제주특별자치도 제주시 아봉로11
33.4789112,126.4075009,제주특별자치도 제주시 애월읍 하귀로19길 41 
33.4791651,126.5338016,제주특별자치도 제주시 구산서길 29
33.4791848,126.4053869,제주특별자치도 제주시 애월읍 항몽로 44
33.4792795,126.7005448,제주특별자치도 제주시 조천읍 선교로 266
33.4796345,126.4033364,제주특별자치도 제주시 애월읍 하귀로21길 30
33.4799929,126.4950875,제주특별자치도 제주시 삼동길 41
33.4801699,126.3956062,제주특별자치도 제주시 애월읍 하귀26길 6
33.4803726,126.477581,제주특별자치도 제주시 노형동 3800-6
33.4808482,126.4156661,제주특별자치도 제주시 애월읍 하귀9길 71
33.4808541,126.5594386,제주특별자치도 제주시 기와4길 22
33.4813057,126.4003716,제주특별자치도 제주시 일주서로7020
33.4813199,126.5466266,제주특별자치도 제주시 기자서길 34
33.4813494,126.5571568,제주특별자치도 제주시 기와4길 14-18
33.4815191,126.7547909,제주특별자치도 제주시 구좌읍 중산간동로 1941
33.4815558,126.7512569,제주특별자치도 제주시 구좌읍 중산간동로 1909
33.4816021,126.5568814,제주특별자치도 제주시 기와4길 14-16
33.4817285,126.5592003,제주특별자치도 제주시 기와4길 20
33.4817329,126.3833202,제주특별자치도 제주시 애월읍 구엄리 348-5
33.4817936,126.5599598,제주특별자치도 제주시 기와4길 19
33.4819166,126.5002284,제주특별자치도 제주시 신대로21길34-1
33.4820431,126.5571884,제주특별자치도 제주시 기와4길 14-14
33.4823312,126.6387264,제주특별자치도 제주시 조천읍 와흘상서2길 47
33.4823954,126.4386274,제주특별자치도 제주시 통물길 125
33.4824918,126.4718794,제주특별자치도 제주시 노형동 2517-1
33.4826229,126.5392854,제주특별자치도 제주시 구산로6길 9
33.4827683,126.4166605,제주특별자치도 제주시 애월읍 하귀9길 45
33.4829501,126.539233,제주특별자치도 제주시 구산로6길 7
33.4829828,126.4423818,제주특별자치도 제주시 논세길 96-38
33.483085,126.477175,제주특별자치도 제주시 노형동
33.4831216,126.5428853,제주특별자치도 제주시 구산동길 4
33.4832012,126.5487163,제주특별자치도 제주시 월두2길 26
33.4832617,126.561318,제주특별자치도 제주시 기와5길 177-16
33.4835423,126.5611711,제주특별자치도 제주시 기와5길 177-17
33.4836043,126.5625366,제주특별자치도 제주시 기와5길 177-18
33.4836195,126.4742731,제주특별자치도 제주시 노형동 2534-3
33.4838998,126.4109334,제주특별자치도 제주시 애월읍 하귀1리 627
33.4839239,126.5214444,제주특별자치도 제주시 원남2길 40
33.4839341,126.3949966,제주특별자치도 제주시 애월읍 가문동길 4
33.4840684,126.547852,제주특별자치도 제주시 월두2길 35
33.4840939,126.5527882,제주특별자치도 제주시 아라이동 1082-1
33.4843532,126.4109065,제주특별자치도 제주시 애월읍 하광로 8
33.4844528,126.500226,제주특별자치도 제주시 선덕로 8길 12
33.4846799,126.4191425,제주특별자치도 제주시 애월읍 하귀7길 54
33.4848948,126.42567,제주특별자치도 제주시 우령서로 16길 19
33.4851245,126.5005046,제주특별자치도 제주시 연동 324-37
33.4857116,126.4286353,제주특별자치도 제주시 외도일동 632-7
33.4858384,126.4840842,제주특별자치도 제주시 노연로 38 재영윈저캐슬
33.4858473,126.4138804,제주특별자치도 제주시 하귀1리 176-3
33.485877,126.4143926,제주특별자치도 제주시 애월읍 하귀1리 118-1
33.4862477,126.5257324,제주특별자치도 제주시 도남동 642-1
33.486297,126.5739144,제주특별자치도 제주시 영강길 142
33.4863013,126.7021538,제주특별자치도 제주시 조천읍 선교로 201-24
33.4863653,126.4777112,제주특별자치도 제주시 노형동 1282-1
33.4863733,126.5264492,제주특별자치도 제주시 도남동 629
33.4865554,126.5435836,제주특별자치도 제주시 아라이동 1366
33.4866347,126.437509,제주특별자치도 제주시 통물길 75
33.4868214,126.7069552,제주특별자치도 제주시 조천읍 선교로 115-1 
33.4868523,126.7000953,제주특별자치도 제주시 조천읍 선교로 185
33.4868912,126.7061099,제주특별자치도 제주시 조천읍 선교로 117
33.4870326,126.5329004,제주특별자치도 제주시 도남로 167 휴펠리스2차
33.4872668,126.5130243,제주특별자치도 제주시 오라2동 1496-1
33.4874979,126.5524017,제주특별자치도 제주시 영평동 2697-2
33.4876094,126.4673831,제주특별자치도 제주시 월광로77
33.487671,126.4296642,제주특별자치도 제주시 외도1동 497-16
33.4881704,126.5534889,제주특별자치도 제주시 영평동 2682
33.4882329,126.5284159,제주특별자치도 제주시 도남동 137-4
33.4884752,126.4190524,제주특별자치도 제주시 애월읍 하귀1길 1
33.4885176,126.4306401,제주특별자치도 제주시 외도1동 498-9
33.4890287,126.4914731,"제주특별자치도 제주시 연동 272-31, 지상1층"
33.4890287,126.4914731,제주특별자치도 제주시 연동 272-31
33.4892224,126.7989661,제주특별자치도 제주시 구좌읍 비자림로 2134-106
33.4893403,126.5311269,제주특별자치도 제주시 이도2동 1909-6
33.4894267,126.4811037,제주특별자치도 제주시 노형동 1274-9
33.4894429,126.4423178,제주특별자치도 제주시 논세길 51 
33.4895261,126.5927651,제주특별자치도 제주시 봉개동 1965-1
33.4896287,126.9006549,제주특별자치도 제주시 구좌읍 종달논길 92
33.4899163,126.4325804,제주특별자치도 제주시 외도1동 482-1
33.4900721,126.5988868,제주특별자치도 제주시 진목5길 8
33.4901385,126.5580819,제주특별자치도 제주시 기와5길 87
33.4902429,126.4979645,제주특별자치도 제주시 연동 311-46
33.4904167,126.5200833,제주특별자치도 제주시 도남동 574-3
33.4904244,126.5427947,제주특별자치도 제주시 이도이동 1982-3
33.490483,126.5953377,제주특별자치도 제주시 봉개동 1854-1
33.4905278,126.4319052,제주특별자치도 제주시 우정로 5길 7
33.4912507,126.5523772,제주특별자치도 제주시 신설동길 103-7
33.4913576,126.6344658,제주특별자치도 제주시 조천읍 종인내길 335-162
33.491409,126.5126554,제주특별자치도 제주시 사평4길 19
33.4915838,126.4885461,제주특별자치도 제주시 연동 2325-7
33.4916255,126.5442805,제주특별자치도 제주시 아라동 3008-1
33.4916292,126.5378399,제주특별자치도 제주시 이도이동 1992-7
33.4919659,126.5131916,제주특별자치도 제주시 사평6길 4
33.4919844,126.5127016,제주특별자치도 제주시 사평4길 15
33.49218,126.954745,제주특별자치도 제주시 우도면 연평리 1732
33.4922006,126.5043917,제주특별자치도 제주시 연미2길 24 
33.4925012,126.6716086,제주특별자치도 제주시 조천읍 곱은달남길 218
33.4925881,126.9006116,제주특별자치도 제주시 구좌읍 종달동길 3
33.4926014,126.6014447,제주특별자치도 제주시 진목3길 59 1층
33.4926685,126.5027383,제주특별자치도 제주시 연미2길 5
33.492707,126.5822814,제주특별자치도 제주시 새바위길 60-33
33.4928354,126.5047385,제주특별자치도 제주시 연삼로116
33.4928697,126.545499,제주특별자치도 제주시 이도2동 1963-7
33.4934243,126.4910316,제주특별자치도 제주시 연동2334-4
33.4936273,126.5585559,제주특별자치도 제주시 황사평6길 58 황사평갤럭시타운
33.4938249,126.5016537,제주특별자치도 제주시 월구 1길 73
33.493908,126.6767815,제주특별자치도 제주시 조천읍 함와로 566-27 스위스마을
33.4941113,126.48515,제주특별자치도 제주시 일주서로 7847-3
33.4945314,126.4507981,제주특별자치도 제주시 덕지2길 7
33.4948276,126.9515557,제주특별자치도 제주시 우도면 천진길 10 
33.4951268,126.6233632,제주특별자치도 제주시 조천읍 종인내길 133
33.4956577,126.5314089,제주특별자치도 제주시 이도이동 1012-10
33.4956763,126.4835,제주특별자치도 제주시 신성마을1길 62
33.4958862,126.4620684,제주특별자치도 제주시 백포남길 11-1
33.4960875,126.5403151,제주특별자치도 제주시 이도2동 405
33.496245,126.5498185,제주특별자치도 제주시 신설동길 45-3
33.4965081,126.549866,제주특별자치도 제주시 신설동길 45-7
33.4968635,126.5558722,제주특별자치도 제주시 황사평6길 9-1
33.4970258,126.5555895,제주특별자치도 제주시 황사평6길 9 
33.4970876,126.5353978,제주특별자치도 제주시 이도2동
33.4974099,126.9055204,제주특별자치도 제주시 구좌읍 종달리 산2
33.4975206,126.5158422,제주특별자치도 제주시 오라1동 1163-4
33.4977952,126.5799962,제주특별자치도 제주시 영평동 252
33.5012577,126.6613424,제주특별자치도 제주시 조천읍 곱은달서길 165 
33.5016023,126.4619022,제주특별자치도 제주시 도리중길 37-6
33.5018886,126.4805255,제주특별자치도 제주시 도두이동 1021-1
33.5024166,126.4862368,제주특별자치도 제주시 신성마을길 112
33.5028983,126.4589514,제주특별자치도 제주시 백포북길 25
33.503675,126.4957131,제주특별자치도 제주시 다호북길7
33.5039461,126.525208,제주특별자치도 제주시 이도일동 1643-1 
33.5042137,126.4639388,제주특별자치도 제주시 도두일동 2618-1
33.5043304,126.5381171,제주특별자치도 제주시 가령로1길 11
33.5046,126.5303832,제주특별자치도 제주시 이도1동 1293-1 
33.504671,126.4937196,제주특별자치도 제주시 용담2동 1950-5
33.5047083,126.635025,제주특별자치도 제주시 조천읍 와흘4길 10
33.5054098,126.4699652,제주특별자치도 제주시 도두봉2길 2 
33.5058762,126.5394114,"제주특별자치도 제주시 고마로14길 16, 308호"
33.5060347,126.5856244,제주특별자치도 제주시 도련남길 59-1
33.5062,126.5868,제주특별자치도 제주시 도련일동
33.5070002,126.5813013,제주특별자치도 제주시 도련남길 97-1
33.5074006,126.4755825,제주특별자치도 제주시 도두봉2길 71
33.5077419,126.4930811,제주특별자치도 제주시 용담2동 2002
33.5078576,126.5889754,제주특별자치도 제주시 도련1동 1618
33.5081608,126.9490927,제주특별자치도 제주시 우도면 연평리 2174-1
33.508517,126.5610332,제주특별자치도 제주시 화북2동 3378-6
33.5088948,126.4722279,제주특별자치도 제주시 도두1동 1688-9
33.5088987,126.4747399,제주특별자치도 제주시 신사수2길 8-2
33.5089052,126.4719518,제주특별자치도 제주시 도두봉6길 4
33.5094311,126.5918508,제주특별자치도 제주시 도련1동 1750
33.5096823,126.7156478,제주특별자치도 제주시 조천읍 동백로 77
33.5098551,126.5914164,제주특별자치도 제주시 매촌2길 71
33.5106385,126.5441508,제주특별자치도 제주시 일도2동 488-1
33.510944,126.8426823,제주특별자치도 제주시 구좌읍 충렬로 166
33.5116384,126.890307,제주특별자치도 제주시 구좌읍 하도9길 72
33.511902,126.5609054,제주특별자치도 제주시 화북이동 3645-4
33.5119139,126.5490658,제주특별자치도 제주시 일주동로14
33.5121184,126.5200242,제주특별자치도 제주시 삼도이동 839
33.5131819,126.8973313,제주특별자치도 제주시 구좌읍 하도15길 153-5
33.5132352,126.5556943,제주특별자치도 제주시 화북이동 4955-16
33.5140833,126.6711125,제주특별자치도 제주시 조천읍 곱은달길 19
33.5140833,126.6711125,제주특별자치도 제주시 조천읍 곱은달길 19 
33.5145466,126.5715428,제주특별자치도 제주시 청풍남8길 56
33.5148516,126.5424028,제주특별자치도 제주시 고으니길 13
33.514892,126.5114,제주특별자치도 제주시 용두암길15
33.5149145,126.5713004,제주특별자치도 제주시 청풍남8길 54
33.5150484,126.5263272,제주특별자치도 제주시 중앙로7길 15
33.5152885,126.8654739,제주특별자치도 제주시 구좌읍 상도남길 37 
33.5155111,126.6940724,제주특별자치도 제주시 조천읍 선흘서5길7
33.5161559,126.706071,제주특별자치도 제주시 조천읍 북흘로 378
33.5168397,126.6538098,제주특별자치도 제주시 조천읍 남조로1길 174 
33.5169012,126.7037448,제주특별자치도 제주시 조천읍 북흘로 376-9
33.5172589,126.5241601,제주특별자치도 제주시 삼도이동 1263
33.5174576,126.5706581,제주특별자치도 제주시 청풍남8길 14
33.5174711,126.4932505,제주특별자치도 제주시 어영길 10-5
33.5174812,126.4984455,제주특별자치도 제주시 어영길 64-12
33.5177964,126.5395496,제주특별자치도 제주시 임항로249
33.5180714,126.5646015,제주특별자치도 제주시 청풍남2길 3 블루핸즈 화북점
33.5183201,126.519805,제주특별자치도 제주시 삼도2동1257
33.5183399,126.4959346,제주특별자치도 제주시 어영길 26
33.5185796,126.8823263,제주특별자치도 제주시 구좌읍 문주란로 1 
33.5193135,126.888529,제주특별자치도 제주시 구좌읍 문주란로 58
33.519414,126.5735139,제주특별자치도 제주시 동화로 1길 3
33.5197183,126.5825944,제주특별자치도 제주시 삼양2동 2176-13
33.5203028,126.8601001,제주특별자치도 제주시 구좌읍 세화14길 8
33.5204363,126.5653954,제주특별자치도 제주시 화북1동 1976-6
33.520527,126.5882031,제주특별자치도 제주시 삼양2동 1477-8
33.5215627,126.8609738,제주특별자치도 제주시 구좌읍 세화11길 8
33.5220797,126.5845333,제주특별자치도 제주시 삼양이동 2133-5
33.5225608,126.5874935,제주특별자치도 제주시 삼양2동 2127-1
33.5230165,126.8487397,제주특별자치도 제주시 구좌읍 평대 12길 15
33.5235014,126.588005,제주특별자치도 제주시 삼양1동 1660-5
33.523599,126.8633984,제주특별자치도 제주시 구좌읍 해녀박물관길 26
33.5236061,126.8666197,제주특별자치도 제주시 구좌읍 면수길 34
33.5239802,126.8619293,제주특별자치도 제주시 구좌읍 해녀박물관길 33-2
33.5249021,126.8652637,제주특별자치도 제주시 구좌읍 면수길 49
33.5249479,126.5868561,제주특별자치도 제주시 삼양일동 1657-8
33.5250618,126.8564138,제주특별자치도 제주시 구좌읍 세화리 1500-41 
33.5259632,126.7814068,제주특별자치도 제주시 구좌읍 월행남길 322-30
33.5262798,126.6599516,제주특별자치도 제주시 조천읍 함대로 3길 24-9
33.526488,126.8542136,제주특별자치도 제주시 구좌읍 평대13길 46 
33.526851,126.5905011,제주특별자치도 제주시 삼양일동 1628-7
33.5269904,126.8560668,제주특별자치도 제주시 구좌읍 세평항로 46-9
33.5271289,126.8548296,제주특별자치도 제주시 구좌읍 세평항로 43
33.5272761,126.5922055,제주특별자치도 제주시 삼양1동 1637-1
33.5283774,126.7716157,제주특별자치도 제주시 구좌읍 만장굴길 182
33.5313458,126.6224244,제주특별자치도 제주시 일주동로757
33.5324729,126.6200324,제주특별자치도 제주시 조천읍 신촌4길 7
33.5324932,126.6735223,제주특별자치도 제주시 조천읍 함덕남12길 19-6
33.5326411,126.6196056,제주특별자치도 제주시 조천읍 신촌4길 6
33.532658,126.6219359,제주특별자치도 제주시 조천읍 신촌6길 20
33.5328503,126.6316094,제주특별자치도 제주시 조천읍 조천2길 19 
33.5329914,126.6385569,제주특별자치도 제주시 조천읍 조천남4길 4
33.5334018,126.6744809,제주특별자치도 제주시 조천읍 함덕남12길 19-3 
33.5335778,126.6219245,제주특별자치도 제주시 조천읍 신촌6길 17
33.5345588,126.6318429,제주특별자치도 제주시 조천읍 조천2길 6
33.5356699,126.623264,제주특별자치도 제주시 조천읍 신북로 93
33.5361359,126.6242113,제주특별자치도 제주시 조천읍 신북로 97-1
33.536849,126.6697034,제주특별자치도 제주시 조천읍 함덕리 906번지
33.5368806,126.6368757,제주특별자치도 제주시 조천읍 조천9길 10
33.5370098,126.6388861,제주특별자치도 제주시 조천읍 신북로 246-1
33.5373334,126.7020049,제주특별자치도 제주시 조천읍 북흘로 135 
33.5376688,126.6400787,제주특별자치도 제주시 조천읍 조천16길 2
33.5379709,126.6692638,제주특별자치도 제주시 조천읍 함덕18길 32-1 
33.5380078,126.6776495,제주특별자치도 제주시 조천읍 함덕30길 27
33.5381683,126.6662153,제주특별자치도 제주시 조천읍 함덕12길 51
33.5384861,126.6624474,제주특별자치도 제주시 조천읍 함덕서4길 11
33.5385548,126.6670603,제주특별자치도 제주시 조천읍 함덕서4길 60-12
33.5389918,126.8361749,제주특별자치도 제주시 구좌읍 계룡길 26-13 
33.5393787,126.6455271,제주특별자치도 제주시 조천읍 조천18길 23-2 
33.539835,126.661314,제주특별자치도 제주시 조천읍 함덕6길 39
33.5400478,126.6753832,제주특별자치도 제주시 조천읍 신북로 618
33.540103,126.6730478,제주특별자치도 제주시 조천읍 신북로 595
33.5407429,126.678141,제주특별자치도 제주시 조천읍 신북로 643
33.5410837,126.646879,제주특별자치도 제주시 조천읍 신북로 337
33.5411248,126.6406638,제주특별자치도 제주시 조천읍 신북로 303
33.541351,126.6583898,제주특별자치도 제주시 조천읍 함덕서1길 7-3
33.5413669,126.8158368,제주특별자치도 제주시 구좌읍 일주동로 2708-19
33.541381,126.8271443,제주특별자치도 제주시 구좌읍 한동북1길 29-3
33.5414175,126.671797,제주특별자치도 제주시 조천읍 신북로 577
33.5428349,126.6644585,제주특별자치도 제주시 조천읍 조함해안로 482-1
33.5429116,126.7613537,제주특별자치도 제주시 구좌읍 김녕남8길 55-87
33.54315,126.6598732,제주특별자치도 제주시 조천읍 신북로 470
33.5432846,126.6634248,제주특별자치도 제주시 조천읍 조함해안로 474 
33.5435335,126.6593244,제주특별자치도 제주시 조천읍 신북로 460
33.5436567,126.6757141,제주특별자치도 제주시 조천읍 함덕리 산 4
33.5436725,126.6610034,제주특별자치도 제주시 조천읍 신북로 473
33.5446745,126.6591198,제주특별자치도 제주시 조천읍 함덕5길 14
33.5450943,126.6863477,제주특별자치도 제주시 조천읍 일주동로1415
33.5460288,126.688649,제주특별자치도 제주시 조천읍 북촌3길 3
33.5462453,126.6509319,제주특별자치도 제주시 조천읍 신흥로 33
33.5475774,126.731529,제주특별자치도 제주시 구좌읍 동김길 150
33.5480695,126.650264,제주특별자치도 제주시 조천읍 신흥리 530-8
33.5486534,126.7423151,제주특별자치도 제주시 구좌읍 김녕남2길 36
33.5489812,126.6550656,제주특별자치도 제주시 조천읍 조함해안로 356
33.5491936,126.7256433,제주특별자치도 제주시 구좌읍 동김길 81
33.5500245,126.750228,제주특별자치도 제주시 구좌읍 김녕남6길 8
33.5500245,126.750228,제주특별자치도 제주시 김녕남 6길 8
33.5515909,126.7532887,제주특별자치도 제주시 구좌읍 김녕로14길 41
33.5517029,126.7471921,제주특별자치도 제주시 구좌읍 김녕리 2111
33.5521589,126.6485494,제주특별자치도 제주시 조천읍 조함해안로 273-37
33.5525759,126.7527882,제주특별자치도 제주시 구좌읍 김녕로14길 29
33.5526409,126.7441105,제주특별자치도 제주시 구좌읍 김녕로4길 30
33.552676,126.7922484,제주특별자치도 제주시 구좌읍 월정3길 14
33.553042,126.74875,제주특별자치도 제주시 구좌읍 김녕로8길 14
33.5530618,126.8169303,제주특별자치도 제주시 구좌읍 행원로13길 67
33.5538284,126.7487425,제주특별자치도 제주시 구좌읍 김녕로8길 5-2
33.5541873,126.7626785,제주특별자치도 제주시 구좌읍 김녕로 242
33.5543749,126.79064,제주특별자치도 제주시 구좌읍 월정1길 27
33.5543774,126.7512216,제주특별자치도 제주시 구좌읍 김녕로14길 6
33.5545126,126.8082607,제주특별자치도 제주시 구좌읍 행원로7길 18-21
33.5545604,126.7504358,제주특별자치도 제주시 구좌읍 김녕로 116
33.5549215,126.7955893,제주특별자치도 제주시 구좌읍 월정7길 55
33.5549804,126.8001032,제주특별자치도 제주시 구좌읍 행원로1길 32-1
33.5560462,126.7475196,제주특별자치도 제주시 구좌읍 김녕로1길 25-1
33.5560603,126.7202876,제주특별자치도 제주시 구좌읍 구좌해안로 52-13
33.5563107,126.7624685,제주특별자치도 제주시 구좌읍 김녕로 209
33.5564489,126.7548278,제주특별자치도 제주시 구좌읍 김녕로21길 5-5
33.5566795,126.8035223,제주특별자치도 제주시 구좌읍 행원로5길 35-20
33.5570861,126.8131383,제주특별자치도 제주시 구좌읍 행원로 13길 122
33.557143,126.745207,제주특별자치도 제주시 구좌읍 김녕항1길 22
33.9604455,126.2959482,제주특별자치도 제주시 영흥리 364-13
34.1691382,126.5675831,전라남도 완도군 보길면 청별길 26-1
34.1887374,126.5048332,전라남도 완도군 노화읍 넙도길 294-45 
34.2983949,126.5290438,전라남도 해남군 송지면 땅끝마을길 70-7
34.2991268,126.7184259,전라남도 완도군 완도읍 중도리 946
34.3052659,126.516115,전라남도 해남군 송지면 갈산길 95
34.3079144,126.7617008,전라남도 완도군 완도읍 중앙길 93
34.3135687,126.520422,전라남도 해남군 송지면 송호리 1047-2
34.3214959,126.7456049,전라남도 완도군 완도읍 해변공원로91번길 24
34.3264029,126.7495651,전라남도 완도군 완도읍 해변공원로 150 
34.3284437,126.8086811,전라남도 완도군 신지면 신리 796-3
34.3348633,126.8272854,전라남도 완도군 신지면 한들길 11
34.3822314,126.5779572,전라남도 해남군 송지면 미황사길 164
34.3949313,126.899267,전라남도 완도군 약산면 장용1길 18
34.3995996,126.8008497,전라남도 완도군 고금면 덕암리 586
34.430975,126.6471133,전라남도 해남군 북평면 와룡길 37
34.4518543,126.8164452,전라남도 강진군 마량면 마량리 786
34.4545869,127.5189398,전라남도 고흥군 봉래면 예내리 500
34.4591982,126.5541506,전라남도 해남군 현산면 일평리 842-3
34.4642283,126.6763355,전라남도 해남군 북일면 신월리 174-10
34.4702588,126.9769235,전라남도 장흥군 회진면 해양낚시길 137
34.4754861,126.2635542,전라남도 진도군 진도읍 남산2길 44
34.4757356,126.2620108,전라남도 진도군 진도읍 남산2길 33
34.4876715,127.1209968,전라남도 고흥군 금산면 신촌리 314
34.4877145,127.1221027,전라남도 고흥군 금산면 신촌리 317-1
34.4976026,126.6194285,전라남도 해남군 삼산면 구림리 146-14
34.5086844,126.8008618,전라남도 강진군 대구면 사당리 127
34.5118907,126.9711474,전라남도 장흥군 관산읍 정남진해안로 228
34.5136619,126.7202044,전라남도 강진군 신전면 수양리 170-16
34.519052,127.24033,전라남도 고흥군 풍양면 천마로 1390-13
34.5263653,127.4480519,전라남도 고흥군 동일면 덕양서원길 119
34.5287973,126.771704,전라남도 강진군 도암면 신기리 123-3
34.5322716,126.8419865,전라남도 강진군 대구면 정수사길 436
34.5350022,126.7899412,전라남도 강진군 대구면 저두리 320-11
34.5462591,126.7278325,전라남도 강진군 도암면 항촌리 1122-1
34.5497845,126.6198283,전라남도 해남군 해남읍 연동리 109-1
34.5652022,126.5992435,전라남도 해남군 해남읍 고도리 479-2
34.5663365,126.607902,전라남도 해남군 해남읍 교육청길 82
34.5666381,126.6475264,전라남도 해남군 옥천면 영춘리 526
34.5668326,126.5940718,전라남도 해남군 해남읍 남부길 17-13
34.5684959,126.6067753,전라남도 해남군 해남읍 교육청길 54-8
34.5686402,126.595484,전라남도 해남군 해남읍 남외리 113-1
34.5696872,126.6174115,전라남도 해남군 해남읍 해리 22-1
34.5697124,126.2996974,전라남도 진도군 군내면 녹진리 산 7-10
34.5713959,126.6056577,전라남도 해남군 해남읍 해리 439-3
34.5732395,126.5999472,전라남도 해남군 해남읍 군청길 4
34.5733445,126.5930188,전라남도 해남군 해남읍 남외리 17
34.5738182,126.5978329,전라남도 해남군 해남읍 수성리 183-5
34.5748429,126.5926297,전라남도 해남군 해남읍 서림길 11-1
34.5749263,126.3106347,전라남도 해남군 문내면 학동리 1035-15
34.575636,126.5922651,전라남도 해남군 해남읍 구교리 308
34.5761708,126.7452616,전라남도 강진군 도암면 만덕리 369
34.576412,126.7499561,전라남도 강진군 도암면 다산로 766-20
34.5791454,126.58813,전라남도 해남군 해남읍 읍관동길 26
34.5791644,126.5920518,전라남도 해남군 해남읍 구교3길 26
34.5797546,126.5928545,전라남도 해남군 해남읍 구교2길 42
34.580497,126.5933925,전라남도 해남군 해남읍 구교3길 36-23
34.5909326,126.5567589,전라남도 해남군 마산면 상등리 1115
34.5955776,126.3120796,전라남도 해남군 문내면 동외리 884-2
34.5969724,127.2772591,전라남도 고흥군 고흥읍 백련장전길 36
34.5987307,127.3047745,"전라남도 고흥군 고흥읍 호형리 660-7, 입구 주차장"
34.5991776,127.7999329,전라남도 여수시 돌산읍 율림리 35
34.5997821,127.8020009,전라남도 여수시 돌산읍 율림리 35-1
34.6091394,127.2107435,전라남도 고흥군 고흥읍 고소리 1192
34.6113661,127.2817279,전라남도 고흥군 고흥읍 서문리 154
34.6138059,127.6424678,전라남도 여수시 화정면 백야리 260
34.6173325,127.7217643,전라남도 여수시 돌산읍 군내리 353-1
34.6211278,126.7744191,전라남도 강진군 강진읍 남포리 510 
34.6216991,126.5683347,전라남도 해남군 마산면 화내리 263-2
34.6316013,127.7946821,전라남도 여수시 돌산읍 방죽포길 93
34.6321126,127.6271659,전라남도 여수시 화양면 세포당머리길 9
34.6323306,126.7576892,전라남도 강진군 강진읍 강진공단길 20-5
34.6327777,126.7707771,전라남도 강진군 강진읍 금릉3길 35
34.6394477,126.7695064,전라남도 강진군 강진읍 남성리 46-13
34.6421033,126.7832854,전라남도 강진군 군동면 백금포길 8
34.6428648,126.7805563,전라남도 강진군 군동면 중앙로 223
34.6443175,126.7719252,전라남도 강진군 강진읍 동성리 300-1
34.6445528,126.4482109,전라남도 해남군 산이면 초송리 527-3
34.6452444,126.6594464,전라남도 해남군 계곡면 성진리 89-2
34.6457665,126.7692836,전라남도 강진군 강진읍 청렴길 1
34.6495411,127.607568,전라남도 여수시 화양면 장수로 204-32
34.6613773,126.7787947,전라남도 강진군 군동면 까치내로 227
34.6652909,126.9248364,전라남도 장흥군 장흥읍 평화우산길 212-43
34.6658294,127.6310907,전라남도 여수시 화양면 굴개길 41
34.6679725,126.3299014,전라남도 해남군 화원면 청용리 554
34.6709134,127.0886868,전라남도 보성군 회천면 우암길21
34.6710895,126.8993406,전라남도 장흥군 장흥읍 남외예양길 10
34.676557,126.9567931,전라남도 장흥군 안양면 로하스2길 39-15
34.6785671,126.9088692,전라남도 장흥군 장흥읍 건산리 390-3
34.6792995,126.7376696,전라남도 강진군 성전면 강진산단로1길 23
34.6793494,126.7358732,전라남도 강진군 성전면 강진산단로1길 1
34.6796934,126.8992567,전라남도 장흥군 장흥읍 진골목길 7-2
34.6967433,126.2623244,전라남도 해남군 화원면 시아로 224 
34.6992125,126.5713625,전라남도 영암군 미암면 춘동리 20-9
34.7012834,127.7569034,전라남도 여수시 돌산읍 몰둠벙길 24
34.7024772,127.7576584,전라남도 여수시 돌산읍 돌산로 3169-27
34.711095,127.769115,전라남도 여수시 돌산읍 마상포길 39-3
34.7124934,126.3792288,전라남도 해남군 산이면 관광레저로 1998
34.7133851,128.0451542,경상남도 남해군 미조면 미조리 107-6
34.7139584,127.7255127,전라남도 여수시 대경도길 111
34.7150211,126.1176439,전라남도 신안군 안좌면 소곡리 709-7
34.7159032,127.0203091,전라남도 보성군 웅치면 중산리 57-6
34.7168175,126.812671,전라남도 강진군 병영면 성남리 189-3
34.7186602,127.7501594,전라남도 여수시 돌산읍 강남로 34
34.7193233,127.7483846,전라남도 여수시 돌산읍 강남1길 50
34.7212281,126.9292918,전라남도 장흥군 부산면 호계리 산215-2
34.7225839,127.988133,경상남도 남해군 상주면 상주리 1227
34.7235207,128.0258007,경상남도 남해군 미조면 미송로486번길 8
34.7237061,128.0245731,경상남도 남해군 미조면 송정리 1133-1
34.7261642,126.5700353,전라남도 영암군 학산면 독천리 61-13
34.7293886,126.5818212,전라남도 영암군 학산면 노정길 5
34.7310138,127.7404375,전라남도 여수시 돌산읍 우두리 799-76
34.7315874,127.7517984,전라남도 여수시 돌산읍 신추길 22
34.7362189,127.0922782,전라남도 보성군 보성읍 노산길 5-56
34.7363854,127.6207847,전라남도 여수시 화양면 창무1길 2
34.7369127,127.7318565,전라남도 여수시 남산동 493
34.7376524,126.416599,전라남도 영암군 삼호읍 삼포리 1941
34.7378256,128.673773,경상남도 거제시 남부면 갈곶리 85-2
34.7379388,126.2805422,전라남도 해남군 화원면 매봉길 243
34.7380904,126.4148053,전라남도 영암군 삼호읍 삼포리 1893
34.7381566,126.3895239,전라남도 영암군 삼호읍 대불로 92-6
34.7382834,127.6503938,"전라남도 여수시 소호동 505-2, 입구 우측"
34.7397034,127.6810682,전라남도 여수시 웅천남8로 24
34.7400271,127.6783982,전라남도 여수시 웅천남8로 23
34.7415196,127.7362547,전라남도 여수시 중앙동 505
34.7422666,126.130632,전라남도 신안군 안좌면 대척리 662
34.7439513,126.38185,전라남도 영암군 삼호읍 신항로 63-7
34.7459897,126.4693249,전라남도 영암군 삼호읍 용앙리 324-5
34.7461563,126.7094131,전라남도 강진군 성전면 월남리 1171-5？ 
34.7471217,126.3765401,전라남도 영암군 삼호읍 신항로 123-7
34.7479095,127.6414636,전라남도 여수시 소라면 안심산길 155
34.7479979,127.6723876,전라남도 여수시 웅천동 1683
34.7481476,127.6687038,전라남도 여수시 웅천동 1691
34.7483179,126.3734125,전라남도 영암군 삼호읍 신항로 135-25
34.7484932,126.4726691,전라남도 영암군 삼호읍 용앙리 237
34.7510167,126.382675,전라남도 영암군 삼호읍 모밀항길 39-18
34.7511565,126.8940507,전라남도 장흥군 부산면 심천공원길 25-38
34.7524286,126.3864066,전라남도 영암군 삼호읍 대불로 249
34.7530734,127.7420343,전라남도 여수시 박람회길 61 
34.753144,126.4580512,전라남도 영암군삼호읍 용앙리 1679-1
34.7545765,127.743801,전라남도 여수시 박람회길 70
34.7559438,126.3573497,전라남도 목포시 신항로276번길 40
34.7559775,127.6650543,전라남도 여수시  시전동 684
34.7560978,126.1247675,전라남도 신안군 안좌면 읍동리 1131-1
34.7561905,126.3571828,전라남도 목포시 신항로276번길 42
34.7581869,126.4515313,전라남도 영암군 삼호읍 용앙리 1637
34.7589366,127.6825859,전라남도 여수시 시전동 64
34.7610282,127.6678744,전라남도 여수시 선소로 93 여수흥국체육관
34.7621081,127.1687066,전라남도 보성군 득량면 오봉리 908
34.7624283,127.0913709,전라남도 보성군 보성읍 옥평리 781
34.7629973,127.077405,전라남도 보성군 보성읍 봉화로 38
34.7632735,127.0745055,전라남도 보성군 보성읍 현충로 6
34.7634993,127.0751679,전라남도 보성군 보성읍 현충로 12
34.7637048,126.3914511,전라남도 영암군 삼호읍 공항로21
34.7641545,127.6377596,전라남도 여수시 소라면 죽림리 1189
34.7641731,127.0772018,전라남도 보성군 보성읍 현충로 32-12
34.7646357,127.9486788,경상남도 남해군 이동면 남해대로1553번길 9-10
34.7657646,128.4099652,경상남도 통영시 산양읍 척포길 628-113
34.7685535,127.0801195,전라남도 보성군 보성읍 보성리 902-4
34.7695711,128.0527949,경상남도 남해군 삼동면 물건리 산271-7
34.769758,127.0900074,전라남도 보성군 보성읍 봉화로 183
34.7703769,128.407317,경상남도 통영시 산양읍 달아1길 38
34.7709431,127.7005827,전라남도 여수시 미평동 807
34.7730962,127.9878372,경상남도 남해군 이동면 보리암로 287
34.7731821,127.9873945,경상남도 남해군 이동면 보리암로 288
34.7733833,127.09395,전라남도 보성군 용문길18
34.7739455,127.8605001,경상남도 남해군 남면 남면로1835번길 8-4
34.7758987,127.6481505,전라남도 여수시 화장동 795-1
34.7759282,128.6412207,경상남도 거제시 동부면 학동리 264
34.776725,127.102025,전라남도 보성군 미력면 가평길44
34.7768459,127.651486,"전라남도 여수시 무선로 187, 4층 주차장 428"
34.7776502,126.7223595,전라남도 영암군 영암읍 개신리 484-47
34.7787703,127.646253,전라남도 여수시 화장동 945-1
34.7795281,127.9288492,경상남도 남해군 이동면 미국마을길 6
34.7799725,128.3887906,경상남도 통영시 산양읍 산양일주로 1361-96
34.7825169,128.432155,경상남도 통영시 산양읍 논아랫개길 148-1
34.7827546,128.4318618,경상남도 통영시 산양읍 논아랫개길 146
34.7870181,126.3815248,전라남도 목포시 대의동2가 1-10
34.7888232,126.5151644,전라남도 무안군 일로읍 청호리 산 23-65
34.788846,126.3818284,전라남도 목포시 측후동 4
34.7907206,127.66535,전라남도 여수시 봉계1길 17
34.7917967,126.4216769,전라남도 목포시 남농로 136
34.7932282,126.6852942,전라남도 영암군 영암읍 회문리 417-2
34.7941181,126.3805475,전라남도 목포시 남교동 57
34.7946606,127.6606423,전라남도 여수시 삼동3길 13
34.7955209,126.7044254,전라남도 영암군 영암읍 오리정길 46
34.7956849,126.4282792,전라남도 목포시 평화로20번길 11
34.7957821,126.6969372,전라남도 영암군 영암읍 교동리 45
34.7965395,126.4316657,전라남도 목포시 평화로61번길 4
34.7971867,126.4263345,전라남도 목포시 미항로 14
34.7972425,126.429465,전라남도 목포시 원형서로 15 롯데마트목포점
34.7972425,126.429465,전라남도 목포시 원형서로 15
34.7985032,126.4381224,전라남도 목포시 옥암동 1100
34.7988338,126.6948118,전라남도 영암군 영암읍 서남리 61-1
34.7992214,126.4323873,전라남도 목포시 원형로 42
34.7993827,126.4363657,전라남도 목포시 평화로107번길 16
34.7994783,126.698667,전라남도 영암군 영암읍 동무리 122
34.800025,126.4237375,전라남도 목포시 부흥로 12
34.800056,126.4401988,전라남도 목포시 미항로 206
34.8000692,126.4330585,전라남도 목포시 원형동로 44
34.8002229,126.4357639,전라남도 목포시 평화로153번길 9
34.8004083,128.0379511,경상남도 남해군 삼동면 봉화리 2572-1
34.8005411,126.4302558,전라남도 목포시 하당남부로61번길 3
34.8006422,126.4677343,전라남도 무안군 삼향읍 남악로250번길 60
34.800961,128.0527221,경상남도 남해군 삼동면 동부대로1122번길 74-19
34.8013651,127.0884565,전라남도 보성군 미력면 도개리 667
34.801729,126.4205846,전라남도 목포시 교육로 51
34.8017626,126.4266244,전라남도 목포시 통일대로37번길 33
34.8020861,126.4296661,전라남도 목포시 하당남부로61번길 22
34.8022287,128.0525162,경상남도 남해군 삼동면 동부대로1122번길 132-52
34.8025146,128.050374,경상남도 남해군 삼동면 동부대로1122번길 132-32
34.802552,126.3685818,전라남도 목포시 죽교동 620-20
34.8025717,126.4215393,전라남도 목포시 신흥로 13
34.8033606,126.4444321,전라남도 목포시 남악로58번길 6-4
34.8033729,128.3969106,경상남도 통영시 산양읍 남평리 741-9
34.8034029,126.4286917,전라남도 목포시 부흥로 69
34.8035424,128.386227,경상남도 통영시 산양읍 산양일주로1683-25
34.8037583,126.42425,전라남도 목포시 신흥로45번길 13
34.8039876,126.4452533,전라남도 목포시 남악로58번길 10
34.8046458,126.4574067,전라남도 목포시 남악로162번길25
34.8047371,126.3936333,전라남도 목포시 영산로 257번길 15
34.8047688,128.4341799,경상남도 통영시 산양읍 삼칭이해안길 820
34.8049006,126.4616613,전라남도 무안군 삼향읍 남악로 210
34.8051108,126.4038692,전라남도 목포시 용당동 993-2
34.8051473,126.4259596,전라남도 목포시 신흥로59번길 15
34.8052579,126.3665863,전라남도 목포시 죽교동 704
34.805493,126.4327093,전라남도 목포시 옥암로46번길 37
34.805509,126.4317916,전라남도 목포시 장미로 107
34.805948,126.4755108,전라남도 무안군 삼향읍 남악로 327
34.80609,126.384586,전라남도 목포시 양을로99번길 8
34.8062423,126.4326755,전라남도 목포시 옥암로54번길 41
34.8062454,126.4733659,전라남도 무안군 삼향읍 남악5로22번길 20 
34.8062454,126.4733659,전라남도 무안군 삼향읍 남악5로22번길 20
34.8063611,127.8385748,경상남도 남해군 서면 스포츠파크길 15
34.8066273,126.4716233,전라남도 무안군 삼향읍 남악5로22번길 10
34.8071375,126.4674117,전라남도 무안군 삼향읍 남악4로34번길 8
34.8076994,127.6696421,전라남도 여수시 월하동 1145-5
34.8080702,126.4242911,전라남도 목포시 비파로108번길 7
34.808369,126.4322906,전라남도 목포시 통일대로119번길 81 
34.8085118,126.425155,전라남도 목포시 비파로108번길 15
34.8085648,126.4858902,전라남도 무안군 일로읍 오룡번영로 153
34.8086703,126.483005,전라남도 무안군 일로읍 오룡번영로 131
34.8088887,126.4696973,전라남도 무안군 삼향읍 남악4로34번길 31
34.8089236,126.4379157,전라남도 목포시 당가두로13번길 12  101동~108동
34.8090474,126.4273821,전라남도 목포시 옥암동 965
34.8091816,126.4763323,전라남도 무안군 삼향읍 남악5로22번길 60
34.8092364,126.4585796,전라남도 무안군 삼향읍 남악2로22번길 59
34.8093788,126.4245656,전라남도 목포시 비파로124번길 16-1
34.809419,126.4610003,전라남도 무안군 삼향읍 남악3로 40
34.8096346,126.4239226,전라남도 목포시 비파로124번길 11
34.809806,126.370258,전라남도 목포시 청호로220번길 5 
34.8099974,126.4790021,전라남도 무안군 삼향읍 남악5로72번길 81-21 
34.8104503,127.8688293,경상남도 남해군 서면 고실로386번길 13
34.8105302,126.4664304,전라남도 무안군 삼향읍 남악4로 50 
34.8105693,126.4676857,전라남도 무안군 삼향읍 남악4로60번길 14
34.8107482,126.3713216,전라남도 목포시 청호로220번길 17
34.8107611,126.4540057,"전라남도 목포시 남악1로52번길 82  301동~309동,상가동"
34.8113306,126.480689,전라남도 무안군 삼향읍 남악5로72번길 81-30 
34.8113696,126.4727663,전라남도 무안군 삼향읍 남악5로60번길 13-9
34.8115667,126.4568899,전라남도 무안군 삼향읍 남악2로74번길 14
34.8117331,126.4648943,전라남도 무안군 삼향읍 대죽동로16번길 25
34.8118144,126.4597911,전라남도 무안군 삼향읍 남악3로 71 
34.8121702,126.4644025,전라남도 무안군 삼향읍 대죽동로 40
34.8121869,126.4263403,전라남도 목포시 하당로289번길 7
34.812757,126.4240478,전라남도 목포시 옥암동 915-26
34.8127714,126.4257137,전라남도 목포시 옥암동 1397
34.812821,126.4806682,전라남도 무안군 삼향읍 남악5로72번길 81-49
34.812958,126.4275062,전라남도 목포시 하당로289번길 6
34.8134531,128.7061886,경상남도 거제시 일운면 와현리431-2
34.8135011,126.4679708,전라남도 무안군 삼향읍 남악4로82번가길 20
34.813505,126.4692119,전라남도 무안군 삼향읍 남악4로82번길 31
34.813505,126.4692119,전라남도 무안군 삼향읍 남악4로82번길 31 
34.8137796,126.3818718,전라남도 목포시 연산동 1261
34.8138613,126.4732674,전라남도 무안군 삼향읍 남악5로72번길 7
34.813971,126.4581263,전라남도 무안군 삼향읍 후광대로 242
34.8140209,126.4649571,전라남도 무안군 삼향읍 남악3로82번가길 45
34.8140422,126.4670486,전라남도 무안군 삼향읍 후광대로 324
34.8141041,126.4665701,전라남도 무안군 삼향읍 남악4로 92
34.814334,126.4289253,전라남도 목포시 녹색로134번길 7
34.8147308,127.1271682,전라남도 보성군 미력면 화방리 1647-1
34.8149633,127.9325224,경상남도 남해군 이동면 남해대로2363번길 5
34.8151676,126.4185632,전라남도 목포시 영산로535번길 6  101동~107동
34.8153814,126.424593,전라남도 목포시 석현로 28
34.8156698,126.4170282,전라남도 목포시 영산로565번길 23
34.8161071,127.6199769,전라남도 여수시 소라면 대포리 산 125-6
34.8161102,126.4631714,전라남도 무안군 삼향읍 오룡길 1 
34.8162135,126.4260988,전라남도 목포시 석현동 1175
34.8166413,126.4250445,전라남도 목포시 석현로 38
34.8166851,126.3881848,전라남도 목포시 연산백련로1번길 69
34.8170973,127.2196609,전라남도 보성군 조성면 조성3길 338
34.8172363,126.4239215,전라남도 목포시 석현로 29
34.8178227,126.4181324,전라남도 목포시 텃골로33번길 53 
34.8179514,126.3963587,전라남도 목포시 포미로 23  101동~109동
34.8183882,126.3912545,전라남도 목포시 연산동 1925
34.8189664,126.4203967,전라남도 목포시 석현동 816-17
34.8190883,126.4285427,전라남도 목포시 선곡로 33
34.8191004,126.4259663,전라남도 목포시 석현로45번길 22-10
34.8191993,126.3882623,전라남도 목포시 연산백련로1번길 79
34.8198198,126.419648,전라남도 목포시 텃골로 13번길 36
34.8198215,126.3927587,전라남도 목포시 용해지구로88번길 8 
34.8200793,126.41976,전라남도 목포시 텃골로13번길 32  상가동
34.8200793,126.41976,전라남도 목포시 텃골로13번길 32
34.820665,126.3890041,전라남도 목포시 연산백련로1번길 111
34.8209691,126.3934333,전라남도 목포시 용해지구로88번길 7
34.8211251,126.3950437,전라남도 목포시 용해지구로88번길 23
34.8214377,126.3896175,전라남도 목포시 대양로 97
34.8233791,126.4477137,전라남도 무안군 삼향읍 삼향로 127-41
34.8240491,126.4224925,전라남도 목포시 영산로659
34.825105,127.7317746,전라남도 여수시 상암3길 9
34.8253048,126.3951956,전라남도 목포시 대양로109번길 53
34.8257165,128.4229714,경상남도 통영시 도남동 354
34.8258252,128.3967354,경상남도 통영시 미우지해안로 101
34.8266016,126.6721352,전라남도 영암군 덕진면 금호길 11
34.8267112,128.426112,경상남도 통영시 도남동 349-1
34.8267624,128.034254,경상남도 남해군 삼동면 금송리 1416-1
34.8268948,126.4227025,전라남도 목포시 영산로692번길 8
34.8275819,128.4401072,"경상남도 통영시 큰발개 1길 33, 마리나요트클럽 앞"
34.8278972,128.4038165,경상남도 통영시 미우지해안로 17
34.8282762,128.4329546,경상남도 통영시 도남동 635
34.8286601,126.7032947,전라남도 영암군 덕진면 소방항공대길 99
34.8294222,127.1519275,전라남도 보성군 겸백면 석호리 456-3
34.8313674,128.4066935,경상남도 통영시 진남아랫길 10
34.8315653,128.408189,경상남도 통영시 진남2길 43-10
34.8323409,127.899904,경상남도 남해군 남해읍 남변리 555
34.8324934,128.0001649,경상남도 남해군 삼동면 지족리 291-11
34.833548,127.346233,전라남도 보성군 벌교읍 남하로 12
34.8335983,127.3450468,전라남도 보성군 벌교읍 남하로 4-10
34.8349775,126.4089445,전라남도 목포시 대양동 산94-5
34.8360243,126.4290616,전라남도 목포시 산양로 50
34.8367739,126.4278361,전라남도 목포시 산양로 40
34.8368522,128.5051454,경상남도 거제시 둔덕면 하둔리 365-64
34.8378218,127.9056587,경상남도 남해군 남해읍 에코파크길 65-10
34.8378497,127.9075684,경상남도 남해군 남해읍 에코파크길 81-2
34.8379554,127.694016,전라남도 여수시 중흥동 1696-1
34.838404,126.4249655,전라남도 목포시 산계길 4-9
34.8392258,127.3057902,전라남도 보성군 벌교읍 칠동리 92
34.8393693,128.399537,경상남도 통영시 통영해안로2
34.8399336,128.4223123,경상남도 통영시 동충1길 12-2
34.8403354,128.4227317,경상남도 통영시 동충2길 22-4
34.8404651,128.4220566,경상남도 통영시 동충3길 6
34.8404847,128.4222329,경상남도 통영시 동충2길 9
34.8405044,128.4224463,경상남도 통영시 동충2길 13
34.8405136,128.4335735,경상남도 통영시 동호안길 24
34.8405989,128.4221691,경상남도 통영시 동충3길 10
34.8407584,128.4219134,경상남도 통영시 동충4길 8
34.8419481,128.4238029,경상남도 통영시 동충4길 51
34.8421691,128.4237774,경상남도 통영시 동충4길 53
34.8432376,128.4271107,경상남도 통영시 남망공원길 3
34.8432526,128.4316425,경상남도 통영시 정동4길 51
34.8433871,128.4317953,경상남도 통영시 정동4길 47
34.8437265,128.4303084,경상남도 통영시 정동2길 58
34.8444023,128.4307499,경상남도 통영시 정동2길 46-8
34.8447855,128.4319375,경상남도 통영시 정동2길 21
34.8453864,128.4319862,경상남도 통영시 정동2길 12
34.8458477,128.4232531,경상남도 통영시 세병로 12
34.8473875,126.4891107,전라남도 무안군 일로읍 공원길 80
34.848464,127.3563508,전라남도 보성군 벌교읍 못골길 12
34.8497051,128.4299951,경상남도 통영시 비석1길 28
34.8502243,126.0407659,전라남도 신안군 자은면 자은서부1길 163-101
34.850785,128.4497615,경상남도 통영시 용남면 화삼리 202
34.8510701,126.440669,전라남도 무안군 삼향읍 유교길 101
34.8510954,128.4289365,경상남도 통영시 북문2길 34
34.8518674,128.5822007,경상남도 거제시 거제면 서정리 790-1
34.8528406,128.4267986,경상남도 통영시 북신로 22
34.8538288,126.4160825,전라남도 무안군 삼향읍 초의길 30
34.8541887,128.433209,경상남도 통영시 무전동 357
34.8563654,128.43055,경상남도 통영시 해미당1길 33
34.8571266,128.6591678,경상남도 거제시 문동동 산72-1
34.8574954,128.4315697,경상남도 통영시 안개4길 11-6 일성한솔타운
34.857504,128.0117084,경상남도 남해군 창선면 상죽리 143
34.8579208,128.4294865,경상남도 통영시 안개2길 7
34.8580972,128.4293071,경상남도 통영시 안개1길 16
34.8584434,128.4291635,경상남도 통영시 안개1길 25
34.8585429,128.4248228,경상남도 통영시 무전동 1025-2
34.8599921,128.4297756,경상남도 통영시 안개2길 53
34.8599934,126.5310076,전라남도 무안군 일로읍 복룡리 128-1
34.8601138,128.4419843,경상남도 통영시 용남면 화포1길 59-9
34.8603047,126.234955,전라남도 신안군 압해읍 송공리 441-26
34.8605781,128.4282378,"경상남도 통영시 무전대로 65, 4층 주차장 "
34.8615879,127.033857,전라남도 화순군 이양면 매정리 산1-7
34.8617688,128.015669,경상남도 남해군 창선면 상죽리 10-9
34.8620506,128.6903575,경상남도 거제시 아주로 3길 7
34.8621877,128.4461307,경상남도 통영시 용남면 화포1길 59-83
34.8630749,126.7494273,전라남도 영암군 금정면 용흥리 1169-20
34.8636446,128.4225302,경상남도 통영시 무전동 1054-5
34.8655701,126.3126242,전라남도 신안군 압해읍 학교리 585
34.8656613,128.439402,경상남도 통영시 용남면 대곡길 12 
34.8656613,128.439402,경상남도 통영시 용남면 대곡길 12
34.8676664,128.4519668,경상남도 통영시 용남면 용남해안로 365-1
34.8680902,128.6379441,"경상남도 거제시 거제중앙로 1641, 1층"
34.8693374,127.0105825,전라남도 화순군 이양면 송정리 산71-5
34.8702018,128.0407331,경상남도 남해군 창선면 연곡로 13
34.8703163,127.8868098,경상남도 남해군 고현면 화방로96번길 24-15
34.8706819,128.0076401,경상남도 남해군 창선면 한재로 16
34.8707367,127.1869513,전라남도 보성군 율어면 문양리 265-3
34.8729934,128.4199976,경상남도 통영시 용남면 기호바깥길 7-89
34.8740247,128.4181244,경상남도 통영시 광도면 신죽3길 16
34.8742901,127.4519882,전라남도 순천시 별량면 봉림리 178-3
34.8746838,128.4120553,경상남도 통영시 광도면 향교옆길 33-32
34.8746992,128.4139418,경상남도 통영시 광도면 향교옆길 33-31
34.8748162,128.4663559,경상남도 통영시 용남면 연기길 269
34.8751821,128.4209068,경상남도 통영시 광도면 신죽2길 112
34.8769566,128.4151456,경상남도 통영시 광도면 신죽1길 12
34.8775836,128.419769,경상남도 통영시 광도면 죽림2로 76-58 
34.8777929,128.4184888,경상남도 통영시 광도면 죽림1로 41-14
34.8782767,128.416758,경상남도 통영시 광도면 죽림1로 41-23 
34.8791704,128.4188226,경상남도 통영시 광도면 죽림리 1579
34.8792237,128.4143125,경상남도 통영시 광도면 죽림2로 14-23
34.8793182,128.4171204,경상남도 통영시 광도면 죽림1로 41-55
34.8794537,128.4135388,경상남도 통영시 광도면 죽림리 292-33
34.8799432,125.9963631,전라남도 신안군 자은면 백산리 산 271-22
34.8801363,126.3871432,전라남도 무안군 청계면 복길로 484
34.8804792,128.421918,경상남도 통영시 광도면 죽림해안로 118-15
34.8808865,128.4175194,경상남도 통영시 광도면 죽림2로45
34.8811511,128.4672997,경상남도 통영시 용남면 장평신촌1길 215-26
34.8819259,128.4141231,경상남도 통영시 광도면 죽림2로 9
34.8825679,128.4164079,경상남도 통영시 광도면 죽림2로 25-40
34.882599,128.623325,경상남도 거제시 거제중앙로 13길 24
34.8827028,128.4229503,경상남도 통영시 광도면 죽림해안로 94
34.8832438,128.4169497,경상남도 통영시 광도면 죽림3로 27-62
34.8833605,128.4145492,경상남도 통영시 광도면 죽림리 248-4
34.8834044,128.4208571,경상남도 통영시 광도면 죽림5로 56
34.8838502,127.5789723,전라남도 여수시 율촌면 율촌로 100-11
34.8842752,128.4482652,경상남도 통영시 용남면 장문로 472-38
34.8843399,128.415113,경상남도 통영시 광도면 죽림3로 13
34.8851228,128.4674266,경상남도 통영시 용남면 견내량로 102 
34.8854108,126.3916478,전라남도 무안군 청계면 복길로 450-42
34.8854498,128.4206761,경상남도 통영시 광도면 죽림5로 43
34.8857203,128.4214062,경상남도 통영시 광도면 죽림5로 25-55
34.8859518,128.4202852,경상남도 통영시 광도면 죽림5로 37
34.8870361,128.4194393,경상남도 통영시 광도면 죽림5로 23
34.8871667,128.4179907,경상남도 통영시 광도면 죽림4로 9
34.8871684,127.5091363,전라남도 순천시 대대동 161-4
34.8872086,128.4205275,경상남도 통영시 광도면 죽림해안로 36
34.8873877,128.4911641,경상남도 거제시 사등면 오량리 841
34.8879164,128.4679427,경상남도 통영시 용남면 장평신촌1길 29
34.887941,128.6462865,경상남도 거제시 제산로 5길 26
34.8883043,126.690157,전라남도 영암군 신북면 황금동1길 5-1
34.8884714,128.4192223,경상남도 통영시 광도면 죽림해안로 10
34.889866,128.6182728,경상남도 거제시 서문로 3길 21
34.8901212,128.6960168,경상남도 거제시 옥포로 2길 7
34.8910158,127.5854211,전라남도 순천시 해룡면 호두리 1181-3
34.8910419,128.6415761,경상남도 거제시 수양로 435  101동~108동
34.8914453,127.4631,전라남도 순천시 별량면 하삼길 5
34.8917263,127.5865087,전라남도 순천시 해룡면 율촌산단5로 17
34.8929455,127.5873688,전라남도 순천시 해룡면 율촌산단4로 26-253
34.8931348,127.1313161,전라남도 보성군 복내면 복내리 435-30
34.8945002,128.6333681,경상남도 거제시 중곡로2길 22  604동~605동
34.8947053,128.6334607,경상남도 거제시 중곡로2길 31  601동~603동
34.8965499,128.6876521,경상남도 거제시 옥포로 25길 20
34.9013414,127.4489909,전라남도 순천시 별량면 오실길 333
34.9018541,128.6864458,경상남도 거제시 옥포로 315  11동 13동
34.9064007,127.3418132,전라남도 순천시 낙안면 충민길 30
34.9064077,127.5044929,전라남도 순천시 동너리길 170
34.9073975,127.4832283,전라남도 순천시 양율길 180
34.9075777,127.512211,전라남도 순천시 교량동 624-1
34.9078166,126.5650316,전라남도 나주시 동강면 연화길 17-3
34.9084222,128.1471515,경상남도 고성군 하이면 덕명리 284
34.910538,127.4828107,전라남도 순천시 야흥동 268-3
34.9112961,128.1560223,경상남도 고성군 하이면 덕명5길 53-11
34.9145407,127.9291131,경상남도 남해군 설천면 강진로206번길 54-20
34.914627,128.6565198,경상남도 거제시 연초면 죽토리 781-1
34.9146302,126.6611439,전라남도 나주시 반남면 신촌리 249-2
34.9148464,126.658915,전라남도 나주시 반남면 신촌리 262-1
34.9154,127.8649,경상남도 남해군 고현면 차면리 
34.915998,127.5317171,전라남도 순천시 해룡면 월전리 425-6
34.9170316,127.5389182,전라남도 순천시 해룡면 성산리 180-1
34.9173315,128.0311323,경상남도 남해군 창선면 대벽리 6-15
34.9190082,126.562267,전라남도 나주시 동강면 수문길 21
34.9246035,127.4053241,전라남도 순천시 상사면 오류골길 9
34.9255719,127.5444295,전라남도 순천시 해룡면 상성길 70 
34.925981,127.4938555,전라남도 순천시 호현1길 34
34.9268358,127.4935708,전라남도 순천시 호현1길 26
34.9292329,127.1725321,전라남도 보성군 문덕면 운곡리 655-9
34.9294456,127.4884343,전라남도 순천시 덕월길 30
34.9295501,126.923612,전라남도 화순군 춘양면 개천로 249
34.9299157,127.4875702,전라남도 순천시 덕월길 22
34.9308679,128.1207784,경상남도 고성군 하이면 덕호리 474-1
34.9309216,127.5136504,전라남도 순천시 생태배움길 22
34.9314364,127.5153731,전라남도 순천시 생태배움길 21
34.9329474,127.5439849,전라남도 순천시 해룡면 좌야로 101
34.9335236,127.4862232,전라남도 순천시 제일대학길 17
34.9349322,127.5146571,전라남도 순천시 팔마4길 40
34.935057,127.5122611,전라남도 순천시 팔마1길 25
34.9358751,127.5137016,전라남도 순천시 팔마1길 26
34.9361541,127.5436577,전라남도 순천시 해룡면 좌야로 135 
34.9361541,127.5436577,전라남도 순천시 해룡면 좌야로 135
34.9361597,127.5118184,전라남도 순천시 팔마1길 27
34.936226,127.7075757,전라남도 광양시 마동 1188
34.9365069,127.4893426,전라남도 순천시 지현길 5
34.9366229,127.5481383,전라남도 순천시 해룡면 신대리 1971
34.9369625,127.4898123,전라남도 순천시 동신흥6길 14
34.937165,127.5471272,전라남도 순천시 해룡면 좌야로 150
34.9374246,128.3700124,경상남도 통영시 도산면 원산길 338
34.9390719,127.4550539,전라남도 순천시 상사면 흘산리 252-22
34.9394011,127.5439731,전라남도 순천시 해룡면 좌야로 159-14
34.9399341,127.8749475,경상남도 남해군 설천면 노량리 410-36
34.9402055,127.7084157,전라남도 광양시 눈소4길 65
34.9403631,127.5470579,전라남도 순천시 해룡면 좌야로 179
34.9417459,126.9782972,전라남도 화순군 춘양면 학포로 1213-55
34.9427816,127.4490789,전라남도 순천시 상사면 상사초등길 34
34.9434463,127.5333407,전라남도 순천시 해룡면 연향로 166
34.943772,127.536923,전라남도 순천시 해룡면 상성길 302
34.9439679,127.701225,전라남도 광양시 마장1길 4
34.9443349,127.5300124,전라남도 순천시 해룡면 장선배기길 298
34.9449781,127.6877594,전라남도 광양시 구마1길 3-2
34.9450051,127.5327958,전라남도 순천시 해룡면 대석길 98
34.9450051,127.5327958,전라남도 순천시 해룡면 대석길 98 
34.945357,127.5298828,전라남도 순천시 해룡면 장선배기길 284
34.9456265,127.531336,전라남도 순천시 해룡면 장선배기길 181
34.9458075,128.4109069,경상남도 통영시 광도면 안정1길 53 
34.9460432,127.6857033,전라남도 광양시 구마9길 11
34.9460432,127.6857033,전라남도 광양시 구마9길 11 
34.9461186,127.7580977,전라남도 광양시 김시식지1길 1-18
34.9461764,128.4089141,경상남도 통영시 광도면 안정1길 55
34.9464384,127.5451583,전라남도 순천시 해룡면 복성길 21
34.9477111,127.7572512,전라남도 광양시 김시식지1길 10
34.9477207,128.3569775,경상남도 고성군 고성읍 월평3길 250
34.9477666,127.5122885,전라남도 순천시 우명길 42 
34.9477854,126.8716326,전라남도 나주시 다도면 나주호로 558-314
34.9479051,127.8650661,경상남도 하동군 금남면 노량리 704
34.9494269,127.696398,전라남도 광양시 중마중앙1길 65
34.9495412,127.5314828,전라남도 순천시 해룡면 상대석길 13
34.949857,127.487361,전라남도 순천시 장천동 62-1
34.9505004,127.8588016,경상남도 하동군 금남면 송문리 824-1
34.9518216,127.6946287,전라남도 광양시 자작길 23
34.9518817,127.5069987,전라남도 순천시 생목길 1
34.9518877,127.6890908,전라남도 광양시 진등3길 6
34.9519438,127.6896724,전라남도 광양시 진등2길 13
34.9524788,128.2138833,경상남도 고성군 하일면 용태리 188-1
34.9535506,127.6891742,"전라남도 광양시 진등길 55-5  501동~506동,상가동"
34.9537545,127.777413,경상남도 하동군 금성면 명선길 57-10
34.9546736,127.524765,전라남도 순천시 장선배기2길 23
34.9549876,128.6550155,경상남도 거제시 하청면 하청리 665-1
34.9550851,127.6889748,전라남도 광양시 진등5길 1
34.9552819,127.6875127,전라남도 광양시 진등6길 11 
34.9555673,126.8485956,전라남도 나주시 다도면 판촌리 1414
34.9557002,128.3292294,경상남도 고성군 고성읍 신월리 657-7
34.9559767,127.6458628,전라남도 광양시 광양읍 직동2길 113
34.9563144,127.6923548,전라남도 광양시 진등6길 51
34.9563767,127.5330911,전라남도 순천시 조례동 1807
34.9569339,127.4804676,"전라남도 순천시 금곡동 60-6, 안쪽 주차장"
34.9570359,127.522635,전라남도 순천시 장승길 27
34.9579494,126.8755342,전라남도 나주시 남평읍 나주호로 442-129
34.9580269,128.4206736,경상남도 통영시 광도면 황리 1645-2
34.9585592,128.6514507,경상남도 거제시 하청면 실전리 656-2
34.9586762,127.538246,전라남도 순천시 조례동 22-1
34.9590092,127.4975997,전라남도 순천시 둑실5길 25
34.9590963,128.3093454,경상남도 고성군 삼산면 공룡로 2913-25
34.9591116,127.5171739,전라남도 순천시 조례동 1114
34.9593202,127.5269043,전라남도 순천시 조례연동길 5
34.9595338,127.5354973,전라남도 순천시 조례동 138
34.9606208,128.3128878,경상남도 고성군 삼산면 대독산업로 7
34.9606966,127.7188556,전라남도 광양시 광영동 산 41-3
34.96161,127.7273386,전라남도 광양시 나룻1길 39
34.9617797,127.5226587,전라남도 순천시 조례1길 9 
34.9625085,127.5678273,"전라남도 광양시 광양읍 순광로 466, 1층"
34.9632423,127.5460202,전라남도 순천시 해룡면 순광로 234-16
34.9633427,127.849411,경상남도 하동군 금남면 소송양달길 15
34.9638235,127.5473718,전라남도 순천시 해룡면 순광로 262
34.9640811,127.5246264,전라남도 순천시 조례2길 31
34.9646101,126.1368749,전라남도 신안군 증도면 우전리 77
34.9650937,128.068581,경상남도 사천시 죽계1길 6
34.9653945,126.5152337,전라남도 무안군 몽탄면 우명길 21
34.9661439,126.6721321,전라남도 나주시 왕곡면 덕산리 594-2
34.9662197,127.771234,경상남도 하동군 금성면 고포큰골길 19-37
34.966474,126.4074362,전라남도 무안군 청계면 서호로 162
34.9665058,127.9741171,경상남도 사천시 서포면 용궁로 211
34.9666896,127.1619038,전라남도 보성군 문덕면 죽산리 464-1
34.9668004,128.3280657,경상남도 고성군 고성읍 동외리 595
34.9668173,127.5788044,전라남도 광양시 광양읍 덕례리 산 6
34.9669098,127.800646,경상남도 하동군 금성면 금성중앙길 73
34.9671987,127.7761025,경상남도 하동군 금성면 고포마을길 122
34.9676712,127.4867548,"전라남도 순천시 환선로 133, 수영장 후면 주차장"
34.9678559,127.8102123,경상남도 하동군 금성면 경제산업로 334
34.9681066,127.610438,전라남도 광양시 광양읍 와룡길 43 
34.9685156,128.3327089,경상남도 고성군 고성읍 공단로 21-9
34.9694561,128.3153979,경상남도 고성군 고성읍 남포로79번길 103-3
34.9696179,127.6122964,전라남도 광양시 광양읍 와룡길 33
34.9696179,127.6122964,전라남도 광양시 광양읍 와룡길 33 
34.970198,127.5875322,"전라남도 광양시 광양읍 인서리 238, 좌측 주차장"
34.9703139,127.5235789,전라남도 순천시 왕지동 852-1
34.9705776,127.723734,전라남도 광양시 옥곡면 신금산단3길 10-42
34.972223,126.909359,전라남도 화순군 도곡면 천태로 1000-151
34.9725234,127.5807064,전라남도 광양시 광양읍 칠성리 948-1
34.9725896,127.7958715,경상남도 하동군 금성면 가린길 57
34.9730608,127.5911129,전라남도 광양시 광양읍 개성2길 4
34.9731093,127.6100039,전라남도 광양시 광양읍 용강1길 12
34.9733652,127.4753291,전라남도 순천시 석현동 525
34.9741057,127.6073191,전라남도 광양시 광양읍 기두5길 5
34.9741237,127.7237628,전라남도 광양시 옥곡면 신금산단5길 113-6
34.9744895,127.7188385,전라남도 광양시 옥곡면 신금산단5길 70-22
34.974752,127.6089839,전라남도 광양시 광양읍 용강1길 11 
34.974752,127.6089839,전라남도 광양시 광양읍 용강1길 11
34.9752895,127.4878049,전라남도 순천시 용당삼산로 29
34.9756139,128.3236016,경상남도 고성군 고성읍 중앙로25번길 30
34.976676,127.5347806,전라남도 순천시 현남길 52
34.9770486,128.3317608,경상남도 고성군 고성읍 동외로168번길 99 
34.9772006,128.3223298,경상남도 고성군 고성읍 중앙로15번길 62
34.9779261,127.7590229,전라남도 광양시 진월면 선소리 208-8
34.9779265,128.2722509,경상남도 고성군 고성읍 이당리 253-4
34.9784064,127.5895235,전라남도 광양시 광양읍 목성리 976-4
34.9794578,128.3244336,경상남도 고성군 고성읍 동외로195번길 35 
34.979967,127.5875704,전라남도 광양시 광양읍 향교길 9-30
34.9802881,128.3107036,경상남도 고성군 고성읍 송학고분로 193
34.9805314,127.5729862,전라남도 광양시 봉강면 명암길 7
34.9810657,127.8988474,경상남도 하동군 금남면 상촌마을길 9-8
34.9812419,127.5889327,전라남도 광양시 광양읍 우산길 3
34.9824091,127.5736874,전라남도 광양시 봉강면 매천로 695-9
34.983399,127.574802,전라남도 광양시 봉강면 석사리 96-2
34.984107,126.960096,전라남도 화순군 능주면 잠정햇살길 2
34.9849586,126.4705639,전라남도 무안군 무안읍 하마로 31
34.9851363,127.7684389,전라남도 광양시 진월면 신답길 24-14
34.9852546,127.8209438,경상남도 하동군 금남면 경제산업로 98
34.9858033,126.9119924,전라남도 화순군 도곡면 월곡리 507-1
34.9858235,127.4883877,전라남도 순천시 선평길 1
34.9861173,127.5000792,전라남도 순천시 서면 강청길 82
34.9866575,127.7139752,전라남도 광양시 옥곡면 금촌길 1-4
34.9866763,127.503975,전라남도 순천시 서면 삼산로 281
34.9875091,127.5088553,전라남도 순천시 서면 산단1길 3
34.9880637,127.4968846,전라남도 순천시 서면 선평동선길 36
34.9887404,127.4981214,전라남도 순천시 서면 배들이길 17
34.9890649,127.9666494,경상남도 사천시 서포면 토끼로 245-49
34.9904886,126.4817117,"전라남도 무안군 무안로 530, 군청 후면 주차장"
34.991919,127.7936007,경상남도 하동군 금성면 길목길 187-3
34.9922683,127.3447129,전라남도 순천시 승주읍 죽학리 767-1
34.9941995,126.6627667,전라남도 나주시 다시면 회진리 163
34.9955715,126.9077033,전라남도 화순군 도곡면 효자2길 75-60
34.9959744,127.8989599,경상남도 하동군 진교면 달구지길 40
34.9960055,128.3258243,경상남도 고성군 고성읍 남해안대로 2829-60
34.9962816,127.8023048,경상남도 하동군 고전면 재첩길 31-7
34.9979328,128.1890953,경상남도 고성군 상리면 척번정리 804
34.9982153,127.8358466,경상남도 하동군 금남면 큰삼내길 34-3
34.9993305,127.7958985,경상남도 하동군 고전면 재첩길 120
35.0003096,127.7896787,경상남도 하동군 고전면 월진길 26
35.0007883,127.7868965,경상남도 하동군 고전면 선소길 39
35.0008126,126.4491681,전라남도 무안군 공항로 347-83
35.0011329,127.8041125,경상남도 하동군 고전면 전도2길 4
35.0019857,128.0652169,경상남도 사천시 용현면 시청2길 86
35.0034774,128.0638649,경상남도 사천시 용현면 시청로 77 
35.0034774,128.0638649,경상남도 사천시 용현면 시청로 77
35.0052648,127.2648664,전라남도 순천시 송광면 신평리 134-2
35.0062309,127.9779526,경상남도 사천시 서포면 자구로465-17
35.0072167,128.0627125,경상남도 사천시 용현면 용현로 87 
35.008115,128.7118855,경상남도 거제시 장목면 거제북로 2501-40
35.0083912,128.298796,경상남도 고성군 대가면 유흥리 304
35.0086102,128.0605752,경상남도 사천시 용현면 대밭담로 13
35.0089029,127.8248713,경상남도 하동군 고전면 잔너리길 85
35.013222,126.7129282,"전라남도 나주시 송월동 1106-2, 1층"
35.0139232,126.7833992,전라남도 나주시 호수로 10  101동~105동
35.0151011,126.9143835,전라남도 화순군 도곡면 덕리길 10-18
35.0152248,126.780745,전라남도 나주시 중야1길 42
35.0152519,126.9528023,전라남도 화순군 능주면 학포로 2275번지
35.017605,127.7995323,경상남도 하동군 고전면 매자신방길 162-16
35.0184191,126.778478,전라남도 나주시 교육길 14
35.0194333,127.3729,전라남도 순천시 승주읍 승평길 19-17
35.019694,126.78183,전라남도 나주시 교육길 35
35.0204976,126.535622,전라남도 함평군 학교면 사거리 553
35.0207355,126.7827656,전라남도 나주시 교육길 45
35.0236838,127.4536777,전라남도 순천시 서면 둔대수계길 28
35.0240082,128.3483014,경상남도 고성군 마암면 삼락리 산96-20
35.0269736,126.9055947,전라남도 화순군 도곡면 천암리 792
35.0270789,126.7093087,전라남도 나주시 늦은맛재길 9
35.0297724,127.9042058,경상남도 하동군 진교면 진교리 426-41
35.0301476,126.9056831,전라남도 화순군 도곡면 온천1길 28-50
35.0304171,126.9058478,전라남도 화순군 도곡면 온천1길 28-46
35.0315359,127.8523456,경상남도 하동군 고전면 일기안터길 3
35.0324101,126.9702967,전라남도 화순군 화순읍 감도리 889
35.0351905,126.9577657,전라남도 화순군 화순읍 학포로 2521-25
35.036137,126.7532099,전라남도 나주시 금천면 신가로 7
35.038267,127.8145471,경상남도 하동군 고전면 지소1길 28
35.0402251,126.8525914,전라남도 나주시 남평읍 강변2길 20
35.0406553,128.0480259,경상남도 사천시 용현면 통양리 249
35.0416677,128.4202548,경상남도 고성군 동해면 장기리 251-9
35.0429391,128.0439536,경상남도 사천시 용현면 선진길 467
35.0429592,126.8511564,전라남도 나주시 남평읍 동사리 351-5
35.0436537,126.7307822,전라남도 나주시 청암길 17
35.0446167,128.064574,경상남도 사천시 용현면 선진길 24
35.0450955,126.8410077,전라남도 나주시 남평읍 남평리 66
35.0459066,128.0748022,경상남도 사천시 용현면 죽천강길 56
35.0464029,126.8439179,전라남도 나주시 남평읍 남평리 21-7
35.0467097,127.844524,경상남도 하동군 양보면 운암리 154
35.047092,126.815225,전라남도 나주시 산포면 등정길 41
35.0473778,128.3671066,경상남도 고성군 회화면 마구들1길 9
35.0476958,126.7042829,전라남도 나주시 금성산길 116
35.0503271,126.924266,전라남도 화순군 화순읍 앵무동1길 132
35.051287,127.5982155,전라남도 광양시 옥룡면 추산리 974
35.0514159,128.9644887,부산광역시 사하구 다대낙조2길 11  101동~104동
35.0535927,126.8661243,전라남도 나주시 남평읍 동촌로 253-6
35.0541888,128.2056553,경상남도 고성군 영현면 침점리 356-2
35.0545852,126.7938806,전라남도 나주시 산포면 덕례유촌길 34-6
35.0547721,126.9102039,전라남도 화순군 화순읍 앵무동길 24
35.0550207,128.3372827,경상남도 고성군 마암면 도전리 462-37
35.0557807,127.8203815,경상남도 하동군 고전면 정안로 379
35.0560382,128.1238736,"경상남도 사천시 정동면 상정대로 2540-39, 1층"
35.0581093,128.4049513,경상남도 고성군 회화면 회진로 482
35.0584554,127.7802976,경상남도 하동군 하동읍 신기궁항길 298-23
35.0588725,126.5226085,전라남도 함평군 함평읍 내교리 828-56
35.0611531,128.3964401,경상남도 고성군 회화면 봉동리 1060-6
35.0611975,126.5476348,전라남도 함평군 대동면 동함평산단길 19-64
35.061432,128.0682528,경상남도 사천시 사남면 조동길 49-43
35.0614538,127.9610635,경상남도 사천시 곤양면 서정리 83
35.0616004,128.0654003,경상남도 사천시 사남면 조동길 61 
35.0618184,128.3956178,경상남도 고성군 회화면 봉동리 1060
35.0626684,128.0773401,경상남도 사천시 사남면 월성1길 89
35.0626684,128.0773401,경상남도 사천시 사남면 월성1길 89 
35.0629262,127.7782668,경상남도 하동군 적량면 고절리 1209-1
35.0637429,127.7570598,경상남도 하동군 하동읍 배섬길 38-1
35.0639196,127.7422029,경상남도 하동군 하동읍 광평리 443-17
35.0645238,126.9864771,전라남도 화순군 화순읍 동헌길 23
35.0647567,128.4641312,경상남도 고성군 동해면 외산로 580
35.065,126.9866134,"전라남도 화순군 화순읍 훈리 31, 군청 후면 주차장"
35.0665973,126.9977808,전라남도 화순군 화순읍 백운촌길 3-3
35.0691457,128.1110659,경상남도 사천시 정동면 여옥길 36
35.0705795,127.9497377,경상남도 사천시 곤명면 봉명로 17
35.0710913,129.0760453,부산광역시 영도구 태종로 702  101동    103동
35.0726795,128.0816023,경상남도 사천시 정동면 진삼로 1347
35.0732203,128.6262897,경상남도 창원시 마산합포구 구산면 원전1길 162
35.0735178,127.7405914,경상남도 하동군 하동읍 읍내리 962-2
35.0737604,128.08431,경상남도 사천시 정동면 사천강1길 11
35.0741971,128.0672658,경상남도 사천시 사남면 유천길 281
35.0748493,126.7005108,전라남도 나주시 노안면 금안1길 26
35.0749894,128.0126402,경상남도 사천시 곤양면 묵실길 31-11 
35.0749894,128.0126402,경상남도 사천시 곤양면 묵실길 31-11
35.0752722,128.0842481,경상남도 사천시 정동면 진삼로 1386
35.076593,126.6870406,전라남도 나주시 노안면 금안한옥길 55
35.0785168,128.0855149,경상남도 사천시 사천읍 진삼로 1423
35.0788105,127.1728079,전라남도 화순군 동복면 동복유천길 11-34
35.0788153,127.7680884,경상남도 하동군 적량면 한옥정길 91
35.0801718,129.0779726,부산광역시 영도구 해양로 301번길 23
35.0806206,128.0857836,경상남도 사천시 사천읍 역사길 9 
35.0818713,127.7381867,경상남도 하동군 하동읍 화심길 23
35.082053,129.0194687,부산광역시 서구 천해로 7번길 33
35.0821022,129.0397181,부산광역시 영도구 해안산책길 30
35.0822258,126.8298029,"광주광역시 남구 회재로 211  101동~110동,상가"
35.082501,128.0974018,경상남도 사천시 사천읍 동문로 50
35.0830524,128.9668867,부산광역시 사하구 장림로161번길 2
35.0847897,128.0853645,경상남도 사천시 사천읍 역사동길 104
35.0851653,128.0764649,경상남도 사천시 사천읍 사주리 263-1
35.0855282,128.0966841,경상남도 사천시 사천읍 동문1길 87
35.08567,128.089958,경상남도 사천시 사천읍 사천읍성로 51
35.0859606,128.0930564,경상남도 사천시 사천읍 수양로 88-16
35.0860141,128.0993668,경상남도 사천시 사천읍 사천향교로 13
35.0860141,128.0993668,경상남도 사천시 사천읍 사천향교로 13 
35.0864157,128.1903257,경상남도 고성군 영오면 오서1길 95
35.0864793,128.0918573,경상남도 사천시 사천읍 수양로 79
35.0869865,128.0852779,경상남도 사천시 사천읍 진삼로 1519
35.087457,127.7336263,경상남도 하동군 하동읍 화심길 116
35.0874756,128.0881113,경상남도 사천시 사천읍 수석리 126
35.0876719,128.4623178,경상남도 창원시 마산합포구 진전면 회진로 1459
35.0879838,127.7671527,경상남도 하동군 적량면 관동길 17-12
35.088497,129.036485,부산광역시 영도구 남항남로 9번길 61
35.0893415,126.8301819,광주광역시 남구 도시첨단산업로 34
35.0903962,128.3778482,경상남도 고성군 회화면 구만로 1332
35.0904521,128.377299,경상남도 고성군 회화면 구만로 1334
35.0907975,127.7135449,경상남도 하동군 하동읍 화심리 1681
35.0908294,128.8987913,부산광역시 강서구 명지오션시티 13로 12-11
35.0909952,126.8285511,광주광역시 남구 도시첨단산업로 18
35.0919028,128.0880621,경상남도 사천시 사천읍 간산1길 32
35.0920441,126.8304712,광주광역시 남구 도시첨단산업로 27
35.0921817,128.7193476,경상남도 창원시 진해구 명동로 62
35.092524,126.9392189,광주광역시 동구 내남동 284
35.0935467,127.0267773,전라남도 화순군 이서면 안양산로 685
35.0942094,129.0461585,부산광역시 영도구 태종로165번길 1-8
35.0946051,129.009319,부산광역시 사하구 옥천로93번길 14
35.0958619,128.7786978,경상남도 창원시 진해구 남문동 1190-1
35.0983052,129.0367023,부산광역시 중구 중앙대로2 
35.0992987,128.0157992,경상남도 사천시 곤양면 흥신로 210
35.0993775,126.9388713,광주광역시 동구 월남동 638
35.0997031,126.8804551,광주광역시 남구 행암동 530
35.0998327,126.0740499,전라남도 신안군 임자면 대기리 2523-11
35.0998975,126.3333838,전라남도 무안군 해제면 유월리 16-78
35.1011025,128.7179694,"경상남도 창원시 진해구 명동580, 좌측 주차장"
35.1016637,126.9385804,광주광역시 동구 월남동 177
35.1023198,129.032684,부산광역시 중구 대청로 116번길 3
35.1027148,128.4189286,경상남도 창원시 마산합포구 진전면 오서리 604-3
35.1036636,128.8261712,경상남도 창원시 진해구 진해대로2457번길 14
35.1037487,126.8750671,광주광역시 남구 임암동 855
35.1046898,126.8647279,광주광역시 남구 임암동 986
35.1081987,127.893312,경상남도 하동군 북천면 곤북로 1123
35.109747,127.8523922,경상남도 하동군 북천면 가평길 43
35.1107504,128.0476153,경상남도 사천시 축동면 화당산로 224
35.1110285,127.0269073,전라남도 화순군 이서면 도원길 80-30
35.1110961,127.8086344,경상남도 하동군 횡천면 횡보길 10
35.111338,128.7496332,경상남도 창원시 진해구 웅천중로59
35.1113856,126.8668398,광주광역시 서구 송암로 143번길 34
35.1114895,126.887052,광주광역시 남구 서문대로499번길 26-15
35.111607,129.0831477,부산광역시 남구 우암로2번길 5
35.1117263,129.080187,부산광역시 남구 무민사로 13
35.1121584,128.4912752,경상남도 창원시 마산합포구 진동면 요장1길 33
35.1124369,129.0841582,부산광역시 남구 우암로2번길 30
35.1126066,126.843997,광주광역시 서구 매월동 373-1
35.1128346,128.7781481,경상남도 창원시 진해구 남양동 166-1
35.1133368,127.8929768,경상남도 하동군 북천면 경서대로 2446-6
35.1137938,126.8992214,"광주광역시 남구 화산로31번안길 2  101동~106동,117동"
35.1140299,127.8476675,경상남도 하동군 북천면 금촌길 52
35.1140961,126.9086314,광주광역시 남구 진월동 41-5
35.1144264,128.7285151,경상남도 창원시 진해구 어은로 32
35.1148174,126.8721556,광주광역시 남구 송암로130번길 4
35.1153991,127.8510068,경상남도 하동군 북천면 금촌길 14-5
35.115474,128.467412,경상남도 창원시 마산합포구 진북면 지산5길 80
35.1155944,126.830313,광주광역시 서구 세동1길 31
35.115913,128.4833681,경상남도 창원시 마산합포구 진동면 신서촌로15
35.1204405,126.9328482,광주광역시 동구 화산로361
35.120635,127.0423805,전라남도 화순군 이서면 인계리 760-3
35.1212097,127.7722999,경상남도 하동군 적량면 동촌길 54
35.1226549,127.8922131,경상남도 하동군 북천면 남포정자길 10
35.1231902,129.0932202,부산광역시 남구 홍곡로 320번길 132
35.123392,126.9354722,광주광역시 동구 학소로42번길 12
35.1237761,126.9151524,광주광역시 남구 봉선로175번길 6  201동~204동
35.1240329,126.787437,광주광역시 광산구 황룡동 1-4
35.1247131,126.8957293,광주광역시 남구 진월동 330-49
35.1248125,126.8819037,광주광역시 서구 풍암중앙로 68  101동~107동
35.1254534,127.7637596,경상남도 하동군 적량면 서리 1765-13
35.1256724,128.7809362,경상남도 창원시 진해구 소사로5번길 8
35.1259165,127.2510151,전라남도 곡성군 석곡면 유정리 381-5
35.1260481,126.8689201,광주광역시 서구 풍암동 491-5
35.1265801,128.9781674,"부산광역시 사상구 엄궁로 142  101동~113동,분산상가동"
35.1281212,126.8535269,광주광역시 서구 금호동 613-6
35.1283855,127.8726903,경상남도 하동군 북천면 중촌길 50
35.1286132,126.900784,광주광역시 남구 봉선로52번길 29
35.1289452,128.978214,부산광역시 사상구 엄궁로 154  상가동
35.1290499,126.7437231,광주광역시 광산구 평동로 639-22 농업기술센터
35.1296351,126.9016104,광주광역시 남구 봉선로52번길 49
35.1298962,126.8560588,광주광역시 서구 금호동 809
35.1299787,126.9073756,광주광역시 남구 대남대로159번길 42  106동~111동
35.1303957,127.8785142,경상남도 하동군 북천면 기동일촌길 3
35.1304153,126.8525379,광주광역시 서구 화개1로 59-2  101동~114동보육117동
35.1307304,127.2531446,전라남도 곡성군 석곡면 석곡3길 1
35.1309204,127.0821698,전라남도 담양군 가사문학면 백아로 2636
35.131131,126.4821958,전라남도 함평군 손불면 서해안고속도로 38
35.1313073,128.1027359,경상남도 진주시 정촌면 화개리 976
35.1315527,126.8588899,광주광역시 서구 풍금로177번길 3
35.1316659,126.9409767,광주광역시 동구 소태동 761-3
35.1324904,126.9335,광주광역시 동구 의재로53
35.1325421,126.9412021,광주광역시 동구 운림동 628
35.1330946,126.853014,광주광역시 서구 금화로 25  101동~107동
35.1335924,126.9405738,광주광역시 동구 의재로 109번길 10
35.1337668,126.8560968,광주광역시 서구 금화로59번길 12  201동~207동
35.1351003,126.8942193,광주광역시 남구 주월동 974-145
35.1357052,127.8715009,경상남도 하동군 북천면 화정길 51
35.1370515,126.7885672,광주광역시 광산구 송정동 1007-4
35.1380731,126.9031181,광주광역시 남구 독립로54번길 8  102동~104동
35.1381895,128.1727591,경상남도 진주시 금곡면 정자천로15번길 15
35.1382349,126.8578664,광주광역시 서구 운천로 61  101동~104동
35.138565,127.701238,경상남도 하동군 악양면 미서길 17-1
35.1393543,126.8722318,광주광역시 서구 염화로57번길 3
35.1395085,126.7936834,광주광역시 광산구 광산로 29번길 15
35.1395482,126.8698325,광주광역시 서구 염화로57번길 19 
35.1405469,126.7992551,광주광역시 광산구 광산로 68번길 13
35.1409652,126.8929547,광주광역시 남구 군분로 82번길 14
35.1417235,126.8834098,"광주광역시 서구 화운로23번길 7-8  101동,103동~105동"
35.1424758,127.7558012,경상남도 하동군 적량면 삼화실로 818
35.1443189,129.064221,부산광역시 남구 전포대로 91번길 47
35.14449,126.924079,광주광역시 동구 서석동 24-2
35.1455652,126.8107485,광주광역시 광산구 사암로24번길 69
35.1472602,129.0656311,부산광역시 남구 문현금융로 40 부산 국제금융센터
35.1474542,129.0566786,부산광역시 부산진구 범천로 12번길 8
35.14754,126.902613,광주광역시 남구 덕림2길 3
35.1475956,126.7758765,광주광역시 광산구 선암동 582
35.1480595,126.9258002,광주광역시 동구 동계천로 150 광주테크노파크
35.148442,126.7798868,광주광역시 광산구 선운중앙로 67번길 6
35.1489043,128.5603618,경상남도 창원시 마산합포구 현동1길 8
35.1489159,128.3234683,경상남도 진주시 이반성면 길성리 916
35.1498876,128.5537934,경상남도 창원시 마산합포구 현동7길27
35.150441,127.7132167,경상남도 하동군 악양면 상신대길 62
35.1505922,129.0901007,부산광역시 남구 황령대로319번나길 17-1
35.1508938,126.8661481,광주광역시 서구 쌍촌동 994-1
35.1509652,126.9193654,광주광역시 동구 궁동 15
35.1510073,129.0904802,부산광역시 남구 황령대로319번나길 30
35.1510968,126.8006306,광주광역시 광산구 금봉로 18  상가동
35.1512754,126.9124309,광주광역시 동구 충장로 5가 25
35.1512998,127.1680357,전라남도 화순군 백아면 노치리 358
35.1514609,129.0863726,부산광역시 남구 황령대로 319번가길 158-30
35.1518654,128.7072304,경상남도 창원시 진해구 자은동 910
35.1523002,126.9327645,광주광역시 동구 필문대로 205번길 17
35.1523631,126.8524138,"광주광역시 서구 시청로 40, 1층 진입후 우측"
35.1523921,129.0876844,부산광역시 남구 황령대로 319번가길 142
35.1525129,126.8451451,광주광역시 서구 상무자유로 105  101동~106동
35.152587,129.0300346,부산광역시 부산진구 가야공원로11번길 5
35.1527223,129.0614753,부산광역시 부산진구 중앙대로 666번길 43
35.1529146,128.5551293,경상남도 창원시 마산합포구 현동3길 1 
35.152982,126.8890912,광주광역시 서구 경열로 17번길 5
35.153151,128.1737761,경상남도 진주시 문산읍 제곡길98번길 36 
35.1535832,129.0650514,부산광역시 부산진구 전포대로 189번
35.1537477,127.7094863,경상남도 하동군 악양면 덕계길 11-12
35.1542416,129.0891587,부산광역시 남구 황령대로319번가길 110  101동~111동
35.1542416,129.0891587,부산광역시 남구 황령대로 319번가길 110
35.1545063,128.4440486,경상남도 창원시 마산합포구 진북면 금산길 209-81
35.1546229,129.1280054,부산광역시 수영구 민락동113-46
35.1558182,126.8707952,광주광역시 서구 월드컵4강로226번길 14  101동~103동
35.1569073,126.919854,광주광역시 동구 계림동 280
35.157315,126.930725,광주광역시 동구 무등로449번길12
35.1585591,126.9196571,광주광역시 동구 경양로 247번길 26
35.1585878,127.6971694,경상남도 하동군 악양면 입석길 39-12
35.1590303,128.0965305,경상남도 진주시 가좌길29번길63
35.1591276,129.0228272,부산광역시 부산진구 개금본동로 40  104동
35.1595378,127.6626139,경상남도 하동군 화개면 검두길 56
35.1601904,129.14475,부산광역시 해운대구 해운대해변로113
35.160546,129.143476,부산광역시 해운대구 해운대해변로 99  101동~108동
35.1606404,127.2505625,전라남도 곡성군 석곡면 연반농공길 4
35.1614009,126.8645005,광주광역시 서구 쌍촌동 1378
35.161765,128.867601,부산광역시 강서구 미음산단5로41번길 71
35.1619713,126.6085762,전라남도 함평군 해보면 해보대성길 76-1
35.162153,129.0642218,부산광역시 부산진구 전포대로 275번길 20
35.1631152,129.1709986,부산광역시 해운대구 좌동순환로 468번길 11
35.1632362,127.0852766,전라남도 화순군 북면 옥리 600-1
35.1639181,127.7242023,경상남도 하동군 악양면 신흥길 145
35.16399,127.9296098,경상남도 하동군 옥종면 북방우회길 7-4
35.1642709,126.7968118,광주광역시 광산구 광주여대길 20
35.1661646,127.8850029,경상남도 하동군 옥종면 의양길 8-1
35.1675597,128.9781336,부산광역시 사상구 낙동대로1210번길 34  101동~106동
35.1681037,129.1313001,부산광역시 해운대구 센텀남대로 50
35.168546,127.6462483,경상남도 하동군 화개면 신기길 18
35.1686929,128.9899432,부산광역시 사상구 백양대로 700번길 24
35.1687386,128.1643721,경상남도 진주시 문산읍 삼곡리 1265-1
35.1688179,129.1295233,부산광역시 해운대구 센텀남대로 35
35.1692482,126.8629426,광주광역시 서구 천변우하로391
35.1694086,126.3599262,전라남도 영광군 염산면 옥실리 1106-34
35.1697051,128.6556218,경상남도 창원시 진해구 태백동 104
35.169818,127.645488,경상남도 하동군 화개면 섬진강대로 3748-14
35.1699713,129.0512407,부산광역시 부산진구 동평로225번길 14
35.1709726,128.0932489,경상남도 진주시 천수로 30  101동~107동
35.1712778,128.5581433,경상남도 창원시 마산합포구 월영마을로 52  501동~507동
35.1713566,127.6930732,경상남도 하동군 악양면 정서길 199-2
35.1714441,127.7083934,경상남도 하동군 악양면 정동상신길 73-12
35.1719652,129.0649166,"부산광역시 부산진구 거제대로 37  201동~215동, 상가동"
35.1724027,129.0378255,"부산광역시 부산진구 당감로 118  101동~103동,105동~108동"
35.1724512,129.0489278,부산광역시 부산진구 새싹로 183  101동~105동
35.1733071,126.822389,광주광역시 광산구 목련로 219번길 25
35.1733576,129.0632963,부산광역시 부산진구 동평로 352  101동~113동
35.1741029,127.9173378,경상남도 하동군 옥종면 옥수로 339
35.1757903,129.0560114,부산광역시 부산진구 성지로62번길 10
35.1760363,129.0553716,부산광역시 부산진구 성지로62번길 8
35.1760802,127.7188147,경상남도 하동군 악양면 하중대길 46
35.1763501,127.3520195,전라남도 곡성군 죽곡면 대황강로 1334
35.1764445,126.8562506,광주광역시 북구 동운로32번길 21
35.1767087,126.8238771,광주광역시 광산구 운남동 524-3
35.1770119,126.8896118,광주광역시 북구 비엔날레로 60  201동~203동
35.1772132,127.7092788,경상남도 하동군 악양면 노전길 59
35.1776877,128.8178593,경상남도 김해시 관동로 138  1401동~1404동
35.1785065,128.5641399,"경상남도 창원시 마산합포구 월영동로 19  201동~207동,상가동"
35.1796005,128.8055102,경상남도 김해시 관동동 332
35.1800786,126.6248865,전라남도 함평군 월야면 월야리 758-15
35.1801082,128.1398701,"경상남도 진주시 동진로 440, 지하2층 주차장 C6"
35.1808705,126.7287783,광주광역시 광산구 남산동 698-20
35.1817029,126.8057573,광주광역시 광산구 고봉로16번길 24
35.1822374,128.0843782,경상남도 진주시 망경남길50번길 30
35.1823128,126.9959885,광주광역시 북구 충효동 805번지
35.18308,126.9225339,광주광역시 북구 문산로 20  101동~109동
35.1832739,127.6341899,경상남도 하동군 화개면 영당1길 49-1
35.183431,128.9519774,부산광역시 강서구 공항진입로42번길20
35.1836052,128.0849279,경상남도 진주시 망경남길 60번길 18
35.1838442,127.7100176,경상남도 하동군 악양면 매계1길 24-3
35.1842624,128.7736072,경상남도 김해시 대청동 산112-130
35.184645,126.9200504,광주광역시 북구 대천로 124-4  101동~105동
35.1853351,126.8413741,광주광역시 광산구 신창동1048번지 부영APT6차
35.1854896,128.5515482,경상남도 창원시 마산합포구 만날고개2길 10-11
35.1857185,126.7858339,광주광역시 광산구 고봉로230번길 6
35.1858329,126.8631439,광주광역시 북구 북문대로249번길 55
35.1863513,128.552875,경상남도 창원시 마산합포구 문화서2길 5
35.1864408,128.082744,경상남도 진주시 망경북길43번길 14-2
35.1865542,128.6891915,경상남도 창원시 성산구 안민로117번길 3  101동~103동
35.186835,126.879675,광주광역시 북구 하서로111
35.1870115,126.7846103,광주광역시 광산구 고봉로258번길 43-9
35.1870303,126.8393036,광주광역시 광산구 수등로287번길
35.1874887,126.8133855,광주광역시 광산구 풍영로179
35.1879159,129.0534752,부산광역시 연제구 경기장로 21
35.1882033,129.101159,부산광역시 연제구 안연로8번길 지하71
35.1889655,128.6887185,경상남도 창원시 성산구 안민로101번길 29  101동~110동
35.1890289,129.2142575,부산광역시 기장군 기장읍 시랑리 736
35.1891413,128.7183224,경상남도 창원시 성산구 전기의길 12
35.1892432,127.7200436,경상남도 하동군 악양면 동매길 15
35.1892916,128.7745129,경상남도 김해시 대청동 산63-2
35.1909363,129.0760717,부산광역시 연제구 거제대로267번길 3-10
35.1909702,128.9847499,부산광역시 사상구 모라동 1375 부산벤처타워
35.1912705,128.7192178,경상남도 창원시 성산구 성주동 178
35.192214,129.2233084,부산광역시 기장군 기장읍 시랑리 408-1
35.1922248,129.2128065,부산광역시 기장군 기장읍 당사리 524
35.1930762,128.9854406,부산광역시 사상구 낙동대로 1518번길 26
35.1931129,126.8488879,"광주광역시 광산구 북문대로419번길 27-7  101동~102동,상가동"
35.1937686,128.567911,경상남도 창원시 마산합포구 중앙동3길 22
35.1944676,126.8405094,광주광역시 광산구 왕버들로 322번길 6
35.1945939,128.5672347,경상남도 창원시 마산합포구 중앙동3길 16
35.1946366,129.0874709,부산광역시 동래구 수안동 34-13
35.1949622,128.062845,경상남도 진주시 진주대로1288번길 13
35.1952609,129.0812825,부산광역시 연제구 명륜로2번길 7  101동~102동
35.1952609,129.0812825,부산광역시 연제구 명륜로2번길 7
35.1954435,129.0023763,부산광역시 북구 낙동북로 737  101동~113동
35.1954763,128.5583125,경상남도 창원시 마산합포구 완월남8길 16
35.1954763,128.5583125,경상남도 창원시 마산합포구 완월남8길 16 
35.1955017,128.9954368,부산광역시 북구 백양대로1016번길 10  101동~107동
35.1961221,127.8866242,경상남도 하동군 옥종면 대정안길 39-2
35.1962442,129.1306576,부산광역시 해운대구 반여동 1291-562
35.1964429,127.71165,경상남도 하동군 악양면 중기길 7
35.1968985,126.8983442,광주광역시 북구 삼각동 산148-1
35.1977047,127.9308262,경상남도 진주시 수곡면 대천리 118-2
35.1979478,129.0675926,부산광역시 동래구 아시아드대로146번길 1
35.1984151,128.6282554,경상남도 창원시 성산구 신촌동 33-8
35.1995426,126.8747478,광주광역시 북구 양산제로 3  101동~102동
35.1996997,128.5598885,경상남도 창원시 마산합포구 완월북7길 8
35.1997606,126.8134425,광주광역시 광산구 풍영로329번길 19  201동~209동
35.2001847,128.8209701,경상남도 김해시 무계한빛길 50
35.2009156,126.9335309,광주광역시 북구 장등동 858-3
35.201717,127.6353727,경상남도 하동군 화개면 가탄길 52
35.2026752,126.8344268,광주광역시 광산구 북문대로583번길 35
35.202845,127.641409,경상남도 하동군 화개면 백혜길 79
35.2031062,128.9957381,부산광역시 북구 가람로8번길 16-9
35.2033478,126.5391938,전라남도 영광군 불갑면 모악리 380-11
35.2033666,127.6007665,전라남도 구례군 토지면 섬진강대로 4310-39
35.203447,128.808553,경상남도 김해시 능동로 167번길 7
35.2036249,128.1456395,경상남도 진주시 금산면 송백로46
35.2036898,127.6014766,전라남도 구례군 토지면 섬진강대로 4310-40
35.2038116,127.6017275,전라남도 구례군 토지면 섬진강대로 4310-38
35.2038441,128.9400223,부산광역시 강서구 평강로193번길 21-8
35.2038941,128.8004435,경상남도 김해시 월산로 111-44  상가동
35.2040013,129.2129827,부산광역시 기장군 기장읍 석산리 293
35.2041891,128.8249868,경상남도 김해시 금관대로 688  101동~113동
35.2041956,127.600717,전라남도 구례군 토지면 섬진강대로 4310-49
35.2043494,126.9376153,광주광역시 북구 동문대로456번길 40
35.2043711,127.8010374,경상남도 하동군 옥종면 궁항길 390
35.2045021,127.6010851,전라남도 구례군 토지면 섬진강대로 4310-46
35.206026,126.897238,광주광역시 북구 설죽로525
35.2080434,128.6926302,경상남도 창원시 성산구 원이대로878번길 9
35.2082301,128.7091928,경상남도 창원시 성산구 창이대로 881번길 19 1구역
35.2083347,128.1001019,경상남도 진주시 장재새미길 19
35.2087708,128.8027379,경상남도 김해시 대청로 421  201동~206동
35.2092693,126.8969911,광주광역시 북구 설죽로 555  201동~203동
35.2095739,129.0206126,부산광역시 북구 함박봉로 26  101동~107동
35.2100665,129.0031621,부산광역시 북구 금곡대로 7번길 35
35.2100665,129.0031621,부산광역시 북구 금곡대로7번길 35
35.2102181,129.0371776,부산광역시 북구 만덕2로 44번길 10
35.210597,128.689323,경상남도 창원시 성산구 가음정로23번길 10-21
35.2108746,126.898453,광주광역시 북구 일곡마을로 225  301동~303동
35.2108925,128.8501296,경상남도 김해시 풍유동 401-4
35.2120155,127.4693439,전라남도 구례군 구례읍 봉동골목길 32-15
35.2122114,128.6791651,경상남도 창원시 성산구 창원대로780번길 47
35.2132502,128.596925,경상남도 창원시 마산회원구 봉암공단10길 56
35.2133448,128.5629112,경상남도 창원시 마산합포구 교방서2길 9  상가
35.2136698,129.0319489,부산광역시 북구 만덕1로51번길 11  201동~204동
35.2138456,126.9000765,광주광역시 북구 우치로537번길 10
35.2139736,126.8505574,광주광역시 광산구 쌍암동 694-59
35.2143992,128.5760228,경상남도 창원시 마산합포구 315대로 447
35.2145555,129.1172152,"부산광역시 금정구 삼어로 207  101동, 106동"
35.2161513,127.461,전라남도 구례군 구례읍 동편제길 30
35.2164284,129.0798226,부산광역시 동래구 온천장로65번길 9
35.2166666,126.8429742,광주광역시 광산구 월계동 874-11
35.2174926,127.6360628,경상남도 하동군 화개면 침점1길 27
35.2178125,128.1473461,경상남도 진주시 금산면 덕의길 11  201동~205동
35.2182522,126.8431538,광주광역시 광산구 쌍암동 657-5 스타필드
35.218454,126.8747898,광주광역시 북구 용두마을2길 12
35.2187539,128.6717512,"경상남도 창원시 성산구 창원대로 721, 건물 우측"
35.2189889,128.1460901,경상남도 진주시 금산면 덕의길 15
35.2190894,128.1445819,경상남도 진주시 금산면 중천로67번길 5
35.2194884,128.6884832,경상남도 창원시 성산구 상남동 44-1
35.2197433,127.8818981,경상남도 하동군 옥종면 종화길 6
35.2197933,128.1474772,경상남도 진주시 금산면 중장로154번길 47
35.2200235,126.8299049,"광주광역시 광산구 첨단중앙로181번길 88-21  101동~109동,상가동"
35.2203094,128.1527524,경상남도 진주시 금산면 금산순환로80번길 16
35.2206002,126.8656626,광주광역시 북구 신용동 637-3
35.2206153,128.1487444,경상남도 진주시 금산면 중장로154번길 49
35.2206664,126.8257724,광주광역시 광산구 비아동 66-6
35.2211487,126.8324162,"광주광역시 광산구 첨단중앙로181번길 88-22  101동~105동,상가동"
35.2218868,128.7054751,경상남도 창원시 성산구 사파정동 318
35.2220268,128.9266661,경상남도 김해시 불암동 220-17
35.222035,126.824338,광주광역시 광산구 비아중앙로 31번길 6
35.2235748,128.8744567,"경상남도 김해시 전하로176번길 79, 1층"
35.2237622,128.6581948,경상남도 창원시 성산구 삼동로128번길 24
35.2237797,126.8465856,광주광역시 북구 첨단과기로176번길 27
35.2255053,128.6802428,경상남도 창원시 성산구 중앙동 92
35.2258513,126.8476375,광주광역시 북구 첨단과기로 208번길 6
35.2261298,128.2935129,경상남도 진주시 지수면 청원길 190-8
35.2266111,128.8904173,경상남도 김해시 부원동 553-1
35.2267263,126.8488125,광주광역시 북구 첨단과기로 208번길 5
35.2271312,128.5039804,경상남도 창원시 마산회원구 내서읍 삼계1길 18
35.2276327,128.8902535,경상남도 김해시 부원동 625-1
35.2281114,129.0105216,부산광역시 북구 화명신도시로 48  201동~208동
35.2285566,128.8502494,경상남도 김해시 외동 산 28-1
35.228603,128.4978621,경상남도 창원시 마산회원구 내서읍 삼계리 508-1
35.2286263,128.50455,경상남도 창원시 마산회원구 내서읍 삼계1길 48
35.2289044,127.644787,경상남도 하동군 화개면 차시배지길 7
35.230135,128.504375,경상남도 창원시 마산회원구 내서읍 삼계2길 31  101동~104동
35.2307989,128.6984643,경상남도 창원시 성산구 비음로25번길 17
35.2308715,129.0154964,"부산광역시 북구 금곡대로 268  301동~308동,401동~410동"
35.231228,128.8742239,경상남도 김해시 봉황동 465
35.2319432,126.859164,광주광역시 북구 첨단 벤처로 108번길 9
35.231997,128.556838,경상남도 창원시 마산회원구 회성남8길 137
35.232035,127.885638,경상남도 하동군 옥종면 옥단로 1650
35.2327018,129.0110313,부산광역시 북구 화명신도시로 100  부상가동
35.2327018,129.0110313,"부산광역시 북구 화명신도시로 100  201동~211동,상가"
35.2329121,129.1237735,부산광역시 금정구 개좌로239번길 39
35.2337681,126.6473521,전라남도 장성군 삼서면 대곡리 811-1
35.2342195,126.995011,전라남도 담양군 창평면 일산길 180
35.2342306,128.590832,경상남도 창원시 마산회원구 양덕동17길 22
35.2347045,128.9042351,경상남도 김해시 김해대로2541번길 70
35.2358912,126.3028192,전라남도 영광군 염산면 두우리963번지
35.235929,128.5749902,경상남도 창원시 마산회원구 합성동 777-7
35.2360127,128.8437987,경상남도 김해시 주촌면 주선로 34
35.2364187,128.5905936,경상남도 창원시 마산회원구 합성남17길 38
35.2370931,127.6440747,경상남도 하동군 화개면 목압길 32
35.237317,128.8620462,경상남도 김해시 우암로 76  305동~309동
35.237379,128.54172,경상남도 창원시 마산회원구 두척1길 27
35.2375372,129.1720814,부산광역시 기장군 철마면 안평리 543-23
35.2375979,128.5073211,경상남도 창원시 마산회원구 내서읍 중리 1127-28
35.2377974,128.6919403,경상남도 창원시 의창구  중앙대로 300
35.2377974,128.6919403,경상남도 창원시 의창구 중앙대로 300
35.2378102,128.9157545,경상남도 김해시 안동 333-2
35.2378268,129.0125413,부산광역시 북구 화명신도시로 156  101동~115동 상가동
35.2378305,127.7341249,경상남도 하동군 청암면 삼신봉로 62-17
35.2378335,127.1215979,전라남도 곡성군 오산면 봉동리 609-2
35.2380684,127.013138,전라남도 담양군 창평면 창평리 106-1
35.2380882,128.6337596,경상남도 창원시 의창구 창원대로314
35.2380958,126.8678946,광주광역시 북구 추암로249
35.2381633,128.9163359,경상남도 김해시 삼안로111번길 5
35.2381984,128.6977575,경상남도 창원시 의창구 용동로57번길 18
35.2382174,129.084502,부산광역시 금정구 수림로71번길 36
35.238232,128.4069386,경상남도 함안군 함안면 광정로 350
35.2384352,128.6982025,경상남도 창원시 의창구 용동로57번안길 9-3
35.2385053,128.6975413,경상남도 창원시 의창구 용동로57번길 20
35.2385498,126.8667547,광주광역시 북구 월출동 987
35.2390809,128.697655,경상남도 창원시 의창구 용동로57번안길 9-11
35.2392144,126.8911669,광주광역시 북구 하서로663번길 97
35.2392702,126.8628058,광주광역시 북구 월출동 696-9
35.2401757,129.0910595,부산광역시 금정구 수림로 12  101동~111동
35.2402669,126.8323042,전라남도 장성군 남면 나노산단5로 60-15
35.2409212,128.9212847,경상남도 김해시 삼안로 112번길20-61
35.2413138,128.5044992,경상남도 창원시 마산회원구 내서읍 상곡리 67
35.2433064,126.9201052,광주광역시 북구 하서로1000번길 32
35.2436166,128.6669716,경상남도 창원시 성산구 반송동 201
35.2439356,128.6811302,경상남도 창원시 의창구 사림동 70
35.2441874,129.215346,부산광역시 기장군 대라리 70-1
35.2458902,129.0836686,부산광역시 금정구 금샘로229번길 29
35.2461572,127.890356,경상남도 하동군 옥종면 옥단로 1830
35.2462026,128.9026949,"경상남도 김해시 인제로169번길 27  301동,303동~305동"
35.2480991,127.5925759,전라남도 구례군 토지면 당치길 6
35.2486861,128.9118902,"경상남도 김해시 삼안로 226  101동~104동,106동~107동105동"
35.2497473,128.5215962,경상남도 창원시 마산회원구 내서읍 중리 391-3
35.2499218,129.2108831,부산광역시 기장군 기장읍 배산로8번길 65  102동
35.2504684,127.5916264,전라남도 구례군 토지면 내동리 산 69-2
35.2507481,126.6685527,전라남도 장성군 삼계면 주산리 731-5
35.2508687,128.6849915,경상남도 창원시 의창구 사림로 99번길63
35.2531098,128.685564,경상남도 창원시 의창구 퇴촌동 409
35.2532045,128.3902518,경상남도 함안군 가야읍 봉수로 478
35.2537614,128.6397357,경상남도 창원시 의창구 도계동 908
35.2540033,128.6401544,경상남도 창원시 의창구 태복산로15번길8
35.2547272,128.808025,경상남도 김해시 주촌면 서부로1637번길 299-194
35.255458,127.1719099,전라남도 곡성군 겸면 남양리 103-5
35.2557936,126.5130155,전라남도 영광군 영광읍 영광로1330
35.2564826,128.9057633,경상남도 김해시 삼방동 840-2
35.2565001,129.0119539,부산광역시 북구 금곡대로 550번길 6
35.2586929,128.8692889,경상남도 김해시 삼계동 1504-1
35.2587583,128.8635612,경상남도 김해시 삼계동 1521
35.2588554,128.8787065,경상남도 김해시 삼계로104-32
35.2602929,128.5955689,경상남도 창원시 의창구 소계로135
35.2614681,128.8660886,경상남도 김해시 삼계동 1437
35.2631286,126.7534376,전라남도 장성군 황룡면 구대해길 34
35.26327,129.2261052,부산광역시 기장군 일광면 해빛6로 65-3
35.263647,128.4493755,경상남도 함안군 산인면 입곡리 1180-1
35.263925,129.2322572,부산광역시 기장군 일광면 일광로 77-7
35.2642159,128.8704443,경상남도 김해시 해반천로168번길 23  401동~413동
35.2655884,128.3490526,경상남도 함안군 군북면 소포리 516-2
35.2658252,129.2339879,부산광역시 기장군 일광면 삼성3길 53-3
35.2659652,126.4924806,전라남도 영광군 천년로1329
35.2674281,128.5254151,"경상남도 창원시 마산회원구 내서읍 호원로 361-3  101동~122동,상가"
35.2682286,129.002795,경상남도 김해시 대동면 월촌리 770
35.2687502,129.2217606,부산광역시 기장군 일광면 해빛4로 1
35.2687779,128.7444045,경상남도 김해시 진례면 서부로436번길 70-25 
35.2689943,128.4989579,경상남도 창원시 마산회원구 내서읍 수곡로 71-107
35.2692204,129.2357214,부산광역시 기장군 일광면 이천10길 37
35.2698356,129.2428481,부산광역시 기장군 일광면 이동길 4
35.27044,126.5025679,전라남도 영광군 영광읍 천년로 1440-26
35.2709847,126.5158697,전라남도 영광군 영광읍 도동리 365
35.2724616,126.508556,전라남도 영광군 영광읍 천년로 13길 2-34
35.2730078,126.4998915,전라남도 영광군 영광읍 대하길1길 21-15
35.273159,126.5131536,전라남도 영광군 영광읍 도동리 159-5
35.2732919,128.4214776,경상남도 함안군 가야읍 중검길 75
35.2736078,128.8671053,경상남도 김해시 해반천로278번길 12-27
35.2737721,129.2294936,부산광역시 기장군 일광면 횡계길 7
35.2737897,127.4143007,"전라남도 구례군 용방면 용산로 107-74, 라면공방 후면 주차장"
35.2740718,126.5005803,전라남도 영광군 영광읍 신하리 831-1
35.274499,129.0899694,부산광역시 금정구 팔송로24번길 52
35.274525,127.663488,경상남도 하동군 화개면 단천길 156
35.2754977,127.8450162,경상남도 산청군 시천면 남명로234번길 36
35.2756468,128.8891804,경상남도 김해시 생림면 인제로 545-20
35.275829,126.5128254,전라남도 영광군 영광읍 도동리 265
35.2766228,128.4081599,경상남도 함안군 가야읍 말산리113
35.2768524,128.4007111,경상남도 함안군 가야읍 성내북길 70
35.2775007,127.290063,전라남도 곡성군 곡성읍 학교로8
35.2775381,126.4997063,전라남도 영광군 영광읍 천년로12길 58
35.2781333,126.5052953,전라남도 영광군 영광읍 백학리 359-9
35.2793881,128.4100986,경상남도 함안군 가야읍 말산리 616
35.2797653,129.0875884,부산광역시 금정구 청룡동 315
35.2798056,128.4145756,경상남도 함안군 가야읍 가야18길 22
35.2800816,127.2974396,전라남도 곡성군 곡성읍 읍내리 256 
35.2805353,128.3986521,경상남도 함안군 가야읍 도항리 264-21
35.2806655,128.1582119,경상남도 진주시 대곡면 월암로23번길 39
35.281027,127.1617971,전라남도 곡성군 겸면 마전농공길 35
35.2810441,126.7320797,전라남도 장성군 동화면 화곡길 1
35.2815572,126.5775614,전라남도 영광군 대마면 송죽리 1042-1
35.2821069,127.2911019,전라남도 곡성군 곡성읍 읍내리 714-3
35.2836637,128.4061201,경상남도 함안군 가야읍 도항2길 65
35.2851993,129.0170817,경상남도 양산시 동면 가산리 525
35.2874794,128.7326171,경상남도 김해시 진영읍 하계리 96번길 68
35.2897012,127.6467768,경상남도 하동군 화개면 의신길 27-2
35.2905687,126.4767477,전라남도 영광군 영광읍 그린테크로 23
35.2907911,128.339339,경상남도 함안군 군북면 장지4길 4
35.2915676,129.1051779,부산광역시 금정구 두구동 1641
35.2921441,127.75506,경상남도 산청군 시천면 중산리501-4
35.2931611,128.7096674,경상남도 김해시 진영읍 하계로9-29
35.293265,126.7749968,전라남도 장성군 장성읍 문화로 21-158
35.2933594,128.5519409,경상남도 함안군 칠원읍 돈담길 44-15
35.293436,126.774299,전라남도 장성군 장성읍 강변로 572-7
35.2934412,127.0327469,전라남도 담양군 무정면 봉안리 609
35.2934668,128.3480645,경상남도 함안군 군북면 현포로 205 
35.2934668,128.3480645,경상남도 함안군 군북면 현포로 205
35.2938529,128.5369198,경상남도 함안군 칠원읍 갈티길 18-3
35.2964136,129.2434216,부산광역시 기장군 일광면 동백리 409
35.296848,129.2431547,부산광역시 기장군 일광면 동백리 425-1
35.2969935,126.7810062,전라남도 장성군 장성읍 영천로 125
35.2980992,127.9599264,경상남도 산청군 단성면 사직단로 456-5
35.2983521,128.5334163,경상남도 함안군 칠원읍 동대이길 68
35.2991555,128.6632474,경상남도 창원시 의창구 동읍 동읍로359번길 27
35.2991836,129.2573669,부산광역시 기장군 일광면 박영준길 8
35.2992442,126.7816706,전라남도 장성군 장성읍 영천로 152
35.3001557,128.2967869,경상남도 함안군 군북면 월촌로 232
35.3005291,126.7704954,전라남도 장성군 장성읍 문화로 81
35.300871,127.969047,경상남도 산청군 신안면 원지강변로61번길 7
35.3019784,129.0255175,경상남도 양산시 동면 금산2길 12
35.302261,126.7837294,전라남도 장성군 장성읍 영천리 1056-4
35.3025067,127.1442864,전라남도 곡성군 옥과면 배감길 16-19
35.3031652,128.8762146,경상남도 김해시 생림면 나전리 554-6
35.3037207,128.7106528,경상남도 김해시 진영읍 진남로 4
35.3042524,126.7824415,전라남도 장성군 장성읍 청운11길 11
35.3043701,126.7865642,전라남도 장성군 장성읍 영천리 1486-22 
35.3049968,129.2430473,부산광역시 기장군 일광면 원리 39
35.3050028,128.5158985,경상남도 함안군 칠원읍 용산리 144-2
35.3050597,126.7856585,전라남도 장성군 장성읍 역전로 194 
35.3053789,126.7814014,전라남도 장성군 장성읍 역전로 148
35.3054723,126.7872364,전라남도 장성군 장성읍 역전로 205
35.3055508,126.7856454,전라남도 장성군 장성읍 역전로 191
35.3055869,127.5111573,전라남도 구례군 산동면 노고단로1068
35.3055899,127.1854054,전라남도 곡성군 입면 송전로 9-6
35.3058332,126.7823788,전라남도 장성군 장성읍 역전로 161
35.3064886,129.0899578,경상남도 양산시 동면 여락리 301-1
35.306621,129.1120453,부산광역시 기장군 철마면 송정2길 11
35.307549,128.7176024,경상남도 김해시 진영읍 진영리 1347
35.3076019,128.7430579,경상남도 김해시 진영읍 여래리 973
35.3078534,128.9308515,경상남도 김해시 상동면 대감리 640-3
35.3084763,128.9905685,"경상남도 양산시 물금읍 청운로 41  101동~114동,부상가동"
35.3088604,128.5174282,경상남도 함안군 칠원읍 용산1길 28
35.3098938,126.9876366,"전라남도 담양군 담양읍 미리산길 28  101동,103동~104동"
35.3100019,128.7281776,경상남도 김해시 진영읍 김해대로361번길 31 
35.3101362,128.7313648,경상남도 김해시 진영읍 김해대로361번길 34
35.3107229,128.7892117,경상남도 김해시 한림면 퇴래리 1363
35.3126492,126.7437839,전라남도 장성군 황룡면 아곡리 42-2
35.3126913,128.7475743,경상남도 김해시 진영읍 본산리 320-2
35.3127926,129.0002078,경상남도 양산시 물금읍 가촌리 1277-2
35.3133215,129.0065823,경상남도 양산시 물금읍 야리로 89  301동~306동
35.313406,128.3541494,경상남도 함안군 법수면 문화마을1길 24
35.3138688,128.7698759,경상남도 김해시 진영읍 본산리 40-9
35.3148006,128.7617863,경상남도 김해시 진영읍 본산리 121-84
35.3150333,127.05865,전라남도 담양군 금성면 상신기길 108
35.3153169,128.3628436,경상남도 함안군 법수면 윤외공단길 87
35.3154368,127.4615005,전라남도 구례군 산동면 하관길 49-26
35.3160916,128.5770705,경상남도 창원시 의창구 북면 무동로 267번길 10
35.3171622,128.2603111,경상남도 의령군 의령읍 서동리 509-4
35.3173649,128.3818683,경상남도 함안군 법수면 윤외리 163-10
35.3189424,128.2823598,경상남도 의령군 의령읍 무전리 124-1
35.3189667,128.2716566,경상남도 의령군 의령읍 동동리 1633
35.3192079,128.9939835,경상남도 양산시 물금읍 황산로501
35.3196013,126.552915,전라북도 고창군 대산면 갈마2길 130
